source_name,source_number,permit_number,permit_type,permit_type2,line1_addr,city_text,zip_cd,latitude,longitude
"Jacksons Food Stores, Inc. dba Jacksons Food Stores #108",44251.00,02-9524-22-01,Jan-00,G5,655 NW NORTH ALBANY RD,ALBANY,97321-1433,44.6455,-123.1142
"CMH Manufacturing West, Inc.",22-0005,22-0005-SI-01,SI,SI,2445 PACIFIC BLVD SW,ALBANY,97321,44.6182,-123.1138
Wastequip Manufacturing Company LLC dba Wastequip Oregon,22-0010,22-0010-ST-01,ST,ST,33710 OAKVILLE RD SW,ALBANY,97321-9479,44.5603,-123.1569
"Pacific Cast Technologies, Inc. dba ATI Cast Products",22-0011,22-0011-TV-01,TV,TV,150 QUEEN AVE SW,ALBANY,97322-3306,44.6232,-123.1024
Allann Bros. Coffee Company,22-0016,22-0016-16-01,16,G1,1852 FESCUE ST SE,ALBANY,97322-7075,44.6248,-123.0604
"Viper Northwest, Inc.",22-0043,22-0043-26-01,26,G1,480 13TH AVE SE,ALBANY,97322-3281,44.6286,-123.098
"C. G. Industries, Inc.",22-0044,22-0044-26-01,26,G1,1282 S COMMERCIAL WAY SE,ALBANY,97322-7036,44.6299,-123.0549
"South Pacific Property, LLC",22-0045,22-0045-22-01,22,G5,522 Pacific Boulevard SW,ALBANY,97321,44.6288,-123.0624
"Love's Travel Stops & Country Stores, Inc.",22-0062,22-0062-22-01,22,G5,6457 OLD SALEM ROAD,ALBANY,97321,44.698,-123.05
"Ti Squared Technologies, Inc.",22-0065,22-0065-SI-01,SI,SI,3900 WESTERN WAY NE,ALBANY,97321,44.6894,-123.0555
At Peace Pet Crematory,22-0066,22-0066-BS-01,BS,BS,35160 RIVERSIDE DR SW,ALBANY,97321,44.599,-123.1671
BRAR Inc,22-0067,22-0067-22-01,22,G5,33166 HIGHWAY 34 SE,ALBANY,97322,44.5558,-123.0659
"Arauco North America, Inc.",22-0143,22-0143-TV-01,TV,TV,2550 OLD SALEM RD NE,ALBANY,97321-7354,44.667,-123.059
"Oregon Metallurgical, LLC dba ATI Albany Operations",22-0328,22-0328-ST-01,ST,ST,530 34TH AVE SW,ALBANY,97322-3828,44.61,-123.1058
"TDY Industries, LLC",22-0547,22-0547-TV-01,TV,TV,1600 OLD SALEM RD NE,ALBANY,97321-4548,44.6546,-123.0632
W.R. Grace & Co. - Conn.,22-6009,22-6009-ST-01,ST,ST,1290 INDUSTRIAL WAY SW,ALBANY,97322-3342,44.6285,-123.1018
"Arauco North America, Inc.",22-6029,22-6029-SI-01,SI,SI,3030 CALAPOOIA ST SW,ALBANY,97321,44.6131,-123.1057
"Selmet, Inc.",22-8041,22-8041-ST-01,ST,ST,33992 SEVEN MILE LN SE,ALBANY,97322-7240,44.5773,-123.0555
Northwest Pipeline LLC,22-8042,22-8042-ST-01,ST,ST,34939 SPICER DR SE,ALBANY,97322-9758,44.6026,-123.004
"OFD Foods, LLC",22-8044,22-8044-11-01,11,G2,770 W 29TH,ALBANY,97321,44.6144,-123.1111
"OFD Foods, LLC",22-8045,22-8045-SI-01,SI,SI,525 25TH AVE SW,ALBANY,97321,44.6083,-123.1166
"AAsum Funeral Home, Inc. dba Aasum-Dufour Funeral Home",22-8054,22-8054-12-01,12,G1,805 ELLSWORTH ST SW,ALBANY,97321-2460,44.6317,-123.105
"Courtesy Corner and Albany Heating Oil, Inc.",22-8057,22-8057-22-01,22,G5,1515 CALAPOOIA S.W.,ALBANY,97321,44.6254,-123.1091
Costco Wholesale Corporation,22-8058,22-8058-22-01,22,G5,3130 Killdeer Ave SE,Albany,97322,44.6391,-123.0668
Linn Regional Fueling Facility,22-8060,22-8060-22-01,22,G5,3010 FERRY ST SW,ALBANY,97322-3937,44.6141,-123.1013
"Leathers Enterprises, Incorporated dba Leathers Oil Co.",22-8065,22-8065-22-01,22,G5,3105 SANTIAM HWY SE,ALBANY,97322-5261,44.6306,-123.0672
"Leathers Enterprises, Incorporated dba Leathers Oil Co.",22-8066,22-8066-22-01,22,G5,33385 HIGHWAY 34 E,ALBANY,97322,44.6297,-123.0276
Pilot Travel Centers LLC,22-8069,22-8069-22-01,22,G5,33380 SE HIGHWAY 34 & I-5,ALBANY,97321,44.5554,-123.0574
"Petrocard, Inc.",22-8078,22-8078-22-01,22,G5,1130 OLD SALEM RD NE,ALBANY,97321,44.6508,-123.063
"Petrocard, Inc.",22-8079,22-8079-22-01,22,G5,2525 PACIFIC BLVD SE,ALBANY,97321-5072,44.6369,-123.0752
"Fred Meyer Stores, Inc. dba FM Fuel Stop",22-8082,22-8082-22-01,22,G5,2500 SANTIAM HWY SE,ALBANY,97322-5211,44.6324,-123.0752
"Petrocard, Inc.",22-8083,22-8083-22-01,22,G5,33380 HIGHWAY 34 SE,ALBANY,97322,44.55,-123.0607
"ARS-Fresno, LLC",22-8084,22-8084-22-01,22,G5,33125 HWY 34 SE,ALBANY,97321,44.5559,-123.0662
Truax Corporation,22-8085,22-8085-22-01,22,G5,1128 PACIFIC BLVD SE,ALBANY,97321,44.6332,-123.0906
Truax Corporation,22-8086,22-8086-22-01,22,G5,505 PACIFIC BLVD SW,ALBANY,97321,44.6261,-123.1077
Truax Corporation,22-8087,22-8087-22-01,22,G5,1208 PACIFIC BLVD SE,ALBANY,97321,44.6333,-123.0895
"Red Sea Hassan, Inc.",22-8090,22-8090-22-01,22,G5,33200 Highway 34 SE,Albany,97322,44.5559,-123.0661
"Jacksons Food Stores, Inc.",22-8091,22-8091-22-01,22,G5,4196 SANTIAM HWY SE,ALBANY,97322-7029,44.6293,-123.0522
"Jacksons Food Stores, Inc. dba Jacksons Food Stores #109",22-8092,22-8092-22-01,22,G5,33157 HIGHWAY 34 SE,ALBANY,97322,44.5558,-123.0665
DS Albany LLC,22-8093,22-8093-22-01,22,G5,3135 SANTIAM HWY SE,ALBANY,97322-5261,44.6305,-123.0667
Safeway Inc.,22-8095,22-8095-22-01,22,G5,1980 14TH AVE SE,ALBANY,97322-8504,44.6289,-123.0813
Borde LLC,22-8097,22-8097-22-01,22,G5,1010 PACIFIC BLVD SE,ALBANY,97321-3151,44.6331,-123.0921
"Virk Petroleum Albany, LLC",22-8102,22-8102-22-01,22,G5,321 AIRPORT RD SE,ALBANY,97322-4505,44.6403,-123.0631
"Springer & Son, Inc.",34-0070,34-0070-12-01,12,G1,4150 SW 185TH AVE,ALOHA,97007-1564,45.4901,-122.8672
"Central Auto Body, LLC",34-0209,34-0209-BS-01,BS,BS,19590 SW SHAW ST,ALOHA,97078,45.4947,-122.8788
Intel Corporation,34-2681,34-2681-ST-02,ST,ST,3585 SW 198TH AVE,ALOHA,97007,45.4927,-122.8827
"Plaid Pantries, Inc.",34-9563,34-9563-23-01,23,G4,20375 SW BASELINE,ALOHA,97006,45.5152,-122.8851
"Cain Petroleum, Inc.",34-9592,34-9592-23-01,23,G4,17095 SW TUALATIN VALLEY HWY,ALOHA,97007,45.4927,-122.8524
Cain Petroleum Inc.,34-9626,34-9626-23-01,23,G4,18560 SW TUALATIN VALLEY HWY,ALOHA,97006,45.4939,-122.868
"Jacksons Food Stores, Inc.",34-9641,34-9641-23-01,23,G4,17395 SW FARMINGTON RD,ALOHA,97007-3214,45.4802,-122.8565
Cain Petroleum Inc,34-9642,34-9642-23-01,23,G4,19165 SW TUALATIN VALLEY HWY,ALOHA,97006,45.4954,-122.8766
Alsea Quarries,02-0016,02-0016-08-01,8,G2,19331 S FORK RD,ALSEA,97324,44.3558,-123.5841
Precious Pets Crematory LLC,36-0049,36-0049-12-01,12,G1,113 E 3RD ST,AMITY,97101,45.1175,-123.2051
"Hall's Quick Stop, Inc.",36-9512,36-9512-22-01,22,G5,402 S. TRADE STREET,AMITY,97101,45.1163,-123.2065
"Waste Management Disposal Services of Oregon, Inc.",11-0001,11-0001-TV-01,TV,TV,18177 CEDAR SPRINGS LN,ARLINGTON,97812,45.6159,-120.2389
"Chemical Waste Management of the Northwest, Inc.",11-0002,11-0002-SI-01,SI,SI,18177 CEDAR SPRINGS LN,ARLINGTON,97812,45.6159,-120.2389
"Mid Columbia Producers, Inc.",11-0005,11-0005-13-01,13,G1,100 PORT ISLAND,ARLINGTON,97812,45.5747,-120.2021
InEnTec Columbia Ridge LLC,11-0006,11-0006-SI-01,SI,SI,17661 CEDAR SPRINGS LN,ARLINGTON,97812-6570,45.6161,-120.2501
Hattenhauer Distributing Co.,11-0008,11-0008-17-01,17,G1,1590 HWY 19 S,ARLINGTON,97812,45.7062,-120.1804
Devin Oil Co. Inc.,11-0014,11-0014-22-01,22,G5,100 BEECH STREET,ARLINGTON,97812,45.7193,-120.2032
Devin Oil Co. Inc.,11-0009,11-0009-17-01,17,G1,74567 HIGHWAY 19,ARLINGTON ,97812,45.7051,-120.1792
Southern Oregon University Foundation,15-0088,15-0088-11-01,11,G2,1250 SISKIYOU BLVD,ASHLAND,97520,42.1864,-122.6952
Oak Street Tank & Steel Inc.,15-0091,15-0091-29-01,29,G4,789 E. JEFFERSON AVENUE,ASHLAND,97520,42.1843,-122.6687
"Ed Staub and Sons Petroleum, Inc.",15-0119,15-0119-22-01,22,G5,2495 HIGHWAY 66,ASHLAND,97520-1409,42.1854,-122.6641
"Litwiller-Simonsen Funeral Services, Inc.",15-0163,15-0163-12-01,12,G1,1811 ASHLAND ST,ASHLAND,97520,42.185,-122.6833
"Rogue Valley Stations, Inc.",15-9558,15-9558-22-01,22,G5,461 S VALLEY VIEW RD,ASHLAND,97520-9349,42.226,-122.7405
"Ed Staub and Sons Petroleum, Inc.",15-9564,15-9564-22-01,22,G5,2371 ASHLAND ST,ASHLAND,97520-1407,42.1853,-122.6686
WSCO Petroleum Corp.,15-9567,15-9567-22-01,22,G5,449 E MAIN ST,ASHLAND,97520,42.1945,-122.7094
"Ed Staub and Sons Petroleum, Inc.",15-9585,15-9585-22-01,22,G5,1515 SISKIYOU BLVD,ASHLAND,97520,42.184,-122.6884
"Colvin Oil I, LLC dba Ashland Chevron",15-9597,15-9597-22-01,22,G5,2500 Highway 66,ASHLAND,97520-1412,42.1854,-122.664
BP Products North America Inc.,15-9600,15-9600-22-01,22,G5,2380 Highway 66,ASHLAND,97520-1410,42.1853,-122.6683
"Colvin Oil I, LLC",15-9611,15-9611-22-01,22,G5,460 S VALLEY VIEW RD,ASHLAND,97520-9349,42.226,-122.7405
Truax Corporation,15-9622,15-9622-22-01,22,G5,2490 ASHLAND ST,ASHLAND,97520-1473,42.1854,-122.6641
"Woodbury Energy Company, Inc.",15-9627,15-9627-22-01,22,G5,120 LOWE RD,ASHLAND,97520-9618,42.2272,-122.7424
Caldwell's Luce-Layton Mortuary Inc.,04-0002,04-0002-BS-01,BS,BS,1165 FRANKLIN AVE,ASTORIA,97103,46.1869,-123.8295
Caffeination Corporation,04-0010,04-0010-16-01,16,G1,279 MARINE DR,ASTORIA,97103-4325,46.1905,-123.8397
Safeway Inc.,04-0016,04-0016-22-01,22,G5,3250 LEIF ERICKSON DRIVE,ASTORIA,97103,46.1919,-123.808
Krista-Cody Ltd,04-0026,04-0026-22-01,22,G5,2264 MARINE DR,ASTORIA,97103-3344,46.1885,-123.8161
Astoria Animal Aid P.C.,04-0033,04-0033-BS-01,BS,BS,35109 HWY 101 BUSINESS,ASTORIA,97103,46.1882,-123.8092
"Northwest Ready Mix, Inc.",04-0046,04-0046-BS-01,BS,BS,950 OLNEY AVE,ASTORIA,97103-5530,46.1736,-123.8315
"HRMORT, LLC",04-0049,04-0049-12-01,12,G1,576 12TH ST,ASTORIA,97103,46.1833,-123.8294
Zedwick.DVM.LLC,04-0063,04-0063-BS-01,BS,BS,576 31ST ST,ASTORIA,97103-2705,46.191,-123.8097
Don Small & Sons Oil Dist Co,04-0072,04-0072-22-01,22,G5,180 MARINE DR,ASTORIA,97103,46.191,-123.8385
"Jackson & Son Distributors, Inc.",04-0074,04-0074-22-01,22,G5,469 W MARINE DR,ASTORIA,97103,46.1852,-123.8572
Sundeep & Ekam LLC,04-0077,04-0077-22-01,22,G5,95 W. Marine Drive,ASTORIA,97103,46.1906,-123.8449
Wilson Oil Inc.,04-0089,04-0089-22-01,22,G5,42273 KYLESTER RD,ASTORIA,97103-8672,46.155,-123.7417
Wilson Oil Inc.,04-0092,04-0092-22-01,22,G5,584 MARINE DR,ASTORIA,97103-4237,46.1904,-123.8366
SABI Inc,04-0093,04-0093-22-01,22,G5,42930 OLD HIGHWAY 30,ASTORIA,97103-8653,46.1715,-123.6576
ALB LLC,04-0094,04-0094-22-01,22,G5,1701 E MARINE DR,ASTORIA,97103-3501,46.1891,-123.8244
"Ektron Industries, Inc.",24-0130,24-0130-26-01,26,G1,9610 MILL CREEK RD SE,AUMSVILLE,97325-9727,44.8402,-122.8648
"Aumsville Quick Stop, Inc.",24-0133,24-0133-22-01,22,G5,522 MAIN ST,AUMSVILLE,97325,44.8407,-122.8703
Statera Fiberglass LLC,24-0162,24-0162-ST-01,ST,ST,9050 PORTER WAY SE,AUMSVILLE,97325,44.8241,-122.8614
"Columbia Helicopters, Inc.",24-0148,24-0148-SI-01,SI,SI,14452 ARNDT RD NE,AURORA,97002,45.2587,-122.7653
"Foster Farms, LLC",24-8062,24-8062-14-01,14,G1,11671 EHLEN RD,AURORA,97002,45.2332,-122.7631
"The Quikrete Companies, LLC",24-9212,24-9212-09-01,9,G1,19527 GRIM RD NE,AURORA,97002-9424,45.2019,-122.7843
Pilot Travel Centers LLC,24-9246,24-9246-22-01,22,G5,12334 EHLEN RD NE,AURORA,97002-8673,45.2347,-122.8089
"Leathers Enterprises, Incorporated dba Leathers Oil Co.",24-9247,24-9247-22-01,22,G5,21687 HIGHWAY 99E,AURORA,97002,45.2227,-122.8146
TA Operating LLC,24-9278,24-9278-22-01,22,G5,21856 BENTS RD NE,AURORA,97002-8676,45.2354,-122.8082
Jubitz Corporation,24-9308,24-9308-22-01,22,G5,21690 DOLORES WAY NE,AURORA,97002-9738,45.2319,-122.8073
Eastern Oregon Pioneer Crematory,01-0005,01-0005-BS-01,BS,BS,1500 DEWEY AVE,BAKER CITY,97814-3840,44.7726,-117.8295
"Maverik, Inc.",01-0010,01-0010-22-01,22,G5,1520 CAMPBELL ST,BAKER CITY,97814-2109,44.7817,-117.8248
Northwest Land and Cattle Company,01-0011,01-0011-22-01,22,G5,940 HWY. 7,BAKER CITY,97814,44.7676,-117.8354
Marvin Wood Products,01-0035,01-0035-10-01,10,G3,3665 17TH ST,BAKER CITY,97814-1318,44.7924,-117.8511
Northwest Pipeline LLC,01-0038,01-0038-TV-01,TV,TV,18193 Chandler Lane,Baker City,97814,44.8567,-117.8734
"R.D. Mac, Inc.",01-0046,01-0046-BS-01,BS,BS,20164 S AIRPORT LANE,BAKER CITY,97814,44.7801,-117.8286
"Byrnes Oil Company, Inc.",01-0047,01-0047-17-01,17,G1,2885 13TH ST,BAKER CITY,97814,44.7849,-117.8458
"Black Distributing, Inc.",01-0048,01-0048-17-01,17,G1,3345 17TH ST,BAKER CITY,97814-1312,44.7894,-117.8498
Humble's Car Wash,01-0052,01-0052-22-01,22,G5,2500 CEDAR ST,BAKER CITY,97814,44.7819,-117.8213
"Black Distributing, Inc.",01-0055,01-0055-22-01,22,G5,2150 BROADWAY,BAKER CITY,97814,44.7784,-117.833
"Jacksons Food Stores, Inc.",01-0056,01-0056-22-01,22,G5,1702 MAIN ST,BAKER CITY,97814,44.7748,-117.8293
"A & B Enterprises, Inc.",01-0060,01-0060-22-01,22,G5,275 CAMPBELL ST,BAKER CITY,97814-2260,44.7819,-117.8126
Trukorp Inc.,01-0062,01-0062-22-01,22,G5,515 CAMPBELL ST,BAKER CITY,97814-2207,44.7815,-117.8141
Northwest Land and Cattle Company,01-0063,01-0063-22-01,22,G5,2212 10TH ST,BAKER CITY,97814,44.7787,-117.8408
"Jacksons Food Stores, Inc.",01-0064,01-0064-22-01,22,G5,500 CAMPBELL STREET,BAKER CITY,97814,44.782,-117.8144
Bandon Concrete LLC,06-0014,06-0014-09-01,9,G1,55356 ROSA RD.,BANDON,97411,43.1045,-124.4087
Oregon Overseas Timber Co. Incorporated,06-0108,06-0108-10-01,10,G3,87680 KEHL LANE,BANDON,97411,43.0823,-124.4099
"CECO, Inc.",06-0145,06-0145-22-01,22,G5,465 2ND STREET SE,BANDON,97411,43.0667,-124.4153
"CECO, Inc.",06-0149,06-0149-22-01,22,G5,785 HIGHWAY 101,BANDON,97411,43.0569,-124.4161
Goddard Energy Co.,06-0152,06-0152-22-01,22,G5,530 2ND STREET SE,BANDON,97411,43.1189,-124.4067
Ronald C. La Franchi dba Ron's Oil Company,06-0155,06-0155-22-01,22,G5,1355 OREGON AVE SW,BANDON,97411-9171,43.1114,-124.4151
"Sweere's Auto Body, LLC",34-0204,34-0204-BS-01,BS,BS,13961 NW MAIN STREET,BANKS,97106,45.6209,-123.1148
Hampton Lumber Mills - Banks Inc.,34-2565,34-2565-10-01,10,G3,42060 NW SUNSET AVE,BANKS,97106,45.6182,-123.1096
Sheldon Oil Company,34-9611,34-9611-22-01,22,G5,13982 NW MAIN ST,BANKS,97106,45.6172,-123.1125
"APRO, LLC",34-9622,34-9622-23-01,23,G4,49950 NW SUNSET HWY,BANKS,97106-7611,45.6796,-123.1909
Cain Petroleum Incorporated,34-9671,34-9671-23-01,23,G4,12440 NW Main St,Banks,97106,45.6112,-123.1145
"Tillamook Country Smoker, LLC",29-0013,29-0013-SI-01,SI,SI,8250 WARREN AVENUE,BAY CITY,97107,45.5167,-123.8828
Sheldon Oil Company,29-0084,29-0084-22-01,22,G5,24485 HWY 101 S ,BEAVER,97108,45.2848,-123.6908
Bowers Forest Products Corporation,03-0023,03-0023-10-01,10,G3,17770 S SCHMIDT RD,BEAVER CREEK,97004,45.2376,-122.5053
"Stein Oil Co., Inc.",20149.00,03-9555-23-01,Jan-00,G4,22025 S BEAVERCREEK RD,BEAVERCREEK,97004-7685,45.2878,-122.5338
International Paper Company,34-0009,34-0009-SI-01,SI,SI,"5500, 5570, & 5800 SW WESTERN AVE",BEAVERTON,97005-4116,45.4801,-122.7821
"Hurford Industries, Inc.",34-0111,34-0111-29-01,29,G4,16650 SW SHAW ST,BEAVERTON,97007-1941,45.4915,-122.8483
Beaverton Auto Body & Paint LLC,34-0121,34-0121-R1-03,R1,R1,4330 SW 142ND AVE,BEAVERTON,97005-2522,45.4885,-122.8223
Costco Wholesale Corporation,34-0132,34-0132-23-01,23,G4,15901 SW Jenkins Rd,Beaverton,97006,45.5088,-122.8423
Walker Oil LLC,34-0177,34-0177-23-01,23,G4,18335 NW WALKER RD,BEAVERTON,97006,45.5269,-122.8656
"Quality Auto Body, Inc.",34-0194,34-0194-BS-01,BS,BS,3900 SW 173RD AVE,BEAVERTON,97078,45.4917,-122.8542
"Precision Body & Paint, Inc.",34-0197,34-0197-BS-01,BS,BS,14145 SW TUALATIN VALLEY HWY,BEAVERTON,97075,45.4897,-122.8228
"Gerber Collision (Oregon, Inc.",34-0199,34-0199-BS-01,BS,BS,4150 SW 141ST AVENUE,BEAVERTON,97005,45.49,-122.8213
"Heitzman Body & Paint, Inc.",34-0205,34-0205-BS-01,BS,BS,11800 SW BEAVERTON HILLSDALE HWY,BEAVERTON,97005,45.4862,-122.798
"West Beaverton Body & Paint Center, Inc.",34-0206,34-0206-BS-01,BS,BS,16800 SW SHAW STREET,BEAVERTON,97078,45.4913,-122.8501
"Carr Auto Group, Inc.",34-0212,34-0212-BS-01,BS,BS,10075 SW CANYON RD,BEAVERTON,97005,45.4935,-122.7796
Caliber Holdings Corporation,34-0216,34-0216-BS-01,BS,BS,4400 SW ROSE LN,BEAVERTON,97005-2601,45.4878,-122.8178
Kevin Dru Robertson,34-0217,34-0217-BS-01,BS,BS,11583 SW CANYON RD,BEAVERTON,97005,45.49,-122.7954
"Fred Meyer Stores, Inc.",34-0219,34-0219-23-01,23,G4,11360 SW CANYON RD,BEAVERTON,97005,45.4903,-122.7919
Bruce Grauman,34-0224,34-0224-BS-01,BS,BS,19390 SW SHAW ST,BEAVERTON,97078,45.4944,-122.8766
"Lucky Auto Body, Paint and Repair",34-0229,34-0229-BS-01,BS,BS,4460 SW 142ND AVE,BEAVERTON,97005,45.4877,-122.8224
Baker Rock Crushing Co.,34-2021,34-2021-ST-01,ST,ST,21880 SW FARMINGTON RD,BEAVERTON,97007-5470,45.4566,-122.8964
Baker Rock Crushing Co.,34-2637,34-2637-07-01,7,G3,21880 SW FARMINGTON RD,BEAVERTON,97007-5470,45.4566,-122.8964
"Tektronix, Inc.",34-2638,34-2638-ST-01,ST,ST,14150 SW KARL BRAUN DR,BEAVERTON,97077,45.499,-122.8179
Wilsonville Concrete Products,34-2640,34-2640-09-01,9,G1,6700 SW 110TH AVE,BEAVERTON,97008-5366,45.4709,-122.7885
Bretthauer Oil Company,34-2651,34-2651-17-01,17,G1,6800 SW 110TH AVE,BEAVERTON,97005,45.4708,-122.7884
Baker Rock Crushing Co.,34-2737,34-2737-09-01,9,G1,21880 SW FARMINGTON RD,BEAVERTON,97007-5470,45.4566,-122.8964
"Bimbo Bakeries USA, Inc.",34-2783,34-2783-ST-01,ST,ST,10750 SW 5TH ST,BEAVERTON,97005,45.4831,-122.7874
"Maxim Integrated Products, Inc.",34-2804,34-2804-ST-01,ST,ST,14320 SW JENKINS RD,BEAVERTON,97005-1155,45.5021,-122.8246
Beaverton Fashion Cleaners,34-9535,34-9535-06-01,6,G6,12525 SW ALLEN BLVD,BEAVERTON,97005-4728,45.4765,-122.8056
"Safeway, Inc.",34-9552,34-9552-23-01,23,G4,14679 SW TEAL BLVD,BEAVERTON,97007-6194,45.4409,-122.8277
Cain Petroleum Incorporated,34-9558,34-9558-23-01,23,G4,14975 SW WALKER RD,BEAVERTON,97006-5913,45.51,-122.83
"Fred Meyer Stores, Inc.",34-9560,34-9560-23-01,23,G4,15995 SW WALKER RD,BEAVERTON,97006,45.5184,-122.8416
Chevron Products Co.,34-9564,34-9564-23-01,23,G4,14850 SW MURRAY SCHOLLS DR,BEAVERTON,97007-9711,45.4361,-122.8305
"Jacksons Food Stores, Inc.",34-9566,34-9566-23-01,23,G4,1220 NW WATERHOUSE AVE,BEAVERTON,97006-5799,45.52,-122.84
"Century Petroleum, LLC",34-9567,34-9567-23-01,23,G4,2115 NW TOWN CENTER DR,BEAVERTON,97006,45.5349,-122.8665
Petrocard Inc.,34-9581,34-9581-23-01,23,G4,13275 SW HENRY ST,BEAVERTON,97005,45.4897,-122.8133
"7-Eleven, Inc.",34-9583,34-9583-23-01,23,G4,75 NW 158TH AVE,BEAVERTON,97006,45.5205,-122.8387
"CECO, Inc.",34-9584,34-9584-22-01,22,G5,4955 SW WESTERN AVE,BEAVERTON,97005-3449,45.4841,-122.7826
Chevron Products Co.,34-9588,34-9588-23-01,23,G4,11015 SW CANYON RD,BEAVERTON,97005,45.4917,-122.7885
BP Products North America Inc.,34-9593,34-9593-23-01,23,G4,11925 SW ALLEN BLVD,BEAVERTON,97005,45.4768,-122.7998
BP Products North America Inc.,34-9619,34-9619-23-01,23,G4,15320 NW CORNELL RD,BEAVERTON,97006-5625,45.532,-122.8338
Alskoam Corporation,34-9620,34-9620-23-01,23,G4,10975 SW BEAVERTON HILLSDALE HWY,BEAVERTON,97005-3002,45.4866,-122.7895
Cain Petroleum Inc.,34-9628,34-9628-23-01,23,G4,3520 SW CEDAR HILLS BLVD,BEAVERTON,97005-2036,45.4943,-122.8083
"Jacksons Food Stores, Inc.",34-9635,34-9635-23-01,23,G4,11850 SW CANYON RD,BEAVERTON,97005,45.489,-122.7988
"Jacksons Food Stores, Inc.",34-9636,34-9636-23-01,23,G4,2355 NW TOWN CENTER DR,BEAVERTON,97006-8909,45.5364,-122.8668
Cain Petroleum Inc.,34-9638,34-9638-23-01,23,G4,8710 SW HALL BLVD,BEAVERTON,97008-6431,45.4568,-122.782
"Highland Food Mkt, Inc",34-9644,34-9644-23-01,23,G4,14470 SW ALLEN BLVD,BEAVERTON,97005-4401,45.4765,-122.8245
Cain Petroleum Inc.,34-9645,34-9645-23-01,23,G4,6655 SW SCHOLLS FERRY RD,BEAVERTON,97008-5442,45.4725,-122.7731
Reliance Oil LLC,34-9650,34-9650-23-01,23,G4,11400 SW BEAVERTON-HILLSDALE HWY,BEAVERTON,97005-2930,45.4863,-122.7924
RS Petroleum LLC,34-9651,34-9651-23-01,23,G4,12075 SW CANYON RD,BEAVERTON,97005,45.4892,-122.8008
"Chevron U.S.A., Inc",34-9654,34-9654-23-01,23,G4,11520 SW CANYON RD,BEAVERTON,97005,45.4897,-122.7943
Triple Seven Station LLC,34-9665,34-9665-23-01,23,G4,12975 SW CANYON RD,BEAVERTON,97005,45.4884,-122.8103
"APRO, LLC",34-9666,34-9666-23-01,23,G4,2420 SW CEDAR HILLS BLVD,BEAVERTON,97005-1368,45.5021,-122.8051
Beaverton Cleaners,34-9696,34-9696-06-01,6,G6,12855 SW CANYON RD,BEAVERTON,97005,45.4885,-122.8075
"Bend Plating - PVD Coatings, LLC",09-0012,09-0012-02-01,2,G2,550 SE BRIDGEFORD BLVD,BEND,97702,44.0451,-121.2891
"JELD-WEN, inc.",09-0015,09-0015-ST-01,ST,ST,62845 BOYD ACRES RD,BEND,97701-8502,44.083,-121.2958
Horizon Pet Services LLC,09-0025,09-0025-12-01,12,G1,1723 NE LYTLE ST,BEND,97701-4058,44.068,-121.3045
"Bend Research, Inc.",09-0036,09-0036-SI-01,SI,SI,20503 BUILDERS CT,BEND,97701-8507,44.0886,-121.2957
Deschutes County Dept. of Solid Waste,09-0040,09-0040-TV-01,TV,TV,61050  SE 27TH ST,BEND,97702,44.0215,-121.2632
"St. Charles Health System, Inc.",09-0048,09-0048-11-01,11,G2,2500 NE NEFF RD,BEND,97701,44.0688,-121.2701
"Colvin Oil I, LLC",09-0054,09-0054-22-01,22,G5,3405 N HWY 97,BEND,97701,44.0832,-121.3048
Daniel Family LLC,09-0057,09-0057-12-01,12,G1,63875 HWY 97N,BEND,97701,44.0927,-121.2936
"Niswonger-Reynolds, LLC",09-0067,09-0067-12-02,12,G1,105 NW IRVING AVE,BEND,97701,44.0589,-121.3088
"Expressway Store, Inc.",09-0071,09-0071-22-01,22,G5,1450 SE REED MARKET RD.,BEND,97702,44.0371,-121.2841
"Genesis Acquisition Company, Inc.",09-0072,09-0072-SI-01,SI,SI,681 SE GLENWOOD,BEND,97709,44.051,-121.2971
"Southgate Center Investment, LLC",09-0076,09-0076-22-01,22,G5,61396 S HWY 97,BEND,97702,44.0295,-121.3115
"Thabet Management, Inc.",09-0080,09-0080-22-01,22,G5,575 NE BELLEVUE,BEND,97701,44.0568,-121.2623
Gas Transmission Northwest LLC,09-0084,09-0084-TV-01,TV,TV,US HWY 97 19 MI S OF BEND,BEND,97701,43.7831,-121.4481
Humane Society of Central Oregon,09-0089,09-0089-12-01,12,G1,61170 SE 27TH ST,BEND,97702,44.0217,-121.2616
Strictly Organic Coffee Company,09-0099,09-0099-16-01,16,G1,6 SW BOND ST.,BEND,97702,44.0513,-121.3162
"Willamette Graystone, Inc.",09-0101,09-0101-BS-01,BS,BS,64978 DESCHUTES PLSNT RDG RD,BEND,97701-7992,44.1622,-121.252
Bend Oil Company,09-0106,09-0106-17-01,17,G1,303 SE SCOTT ST,BEND,97702-1376,44.0499,-121.3034
"Qorvo Oregon, Inc.",09-0119,09-0119-26-01,26,G1,"63140 BRITTA ST., BLDG. C",BEND,97701,44.0923,-121.3086
Suterra LLC,44447.00,09-9508-SI-01,SI,SI,20950 NE TALUS PLACE,BEND,97701,44.1139,-121.2781
Bend Oil Company,44449.00,09-9510-17-01,Jan-00,G1,913 NE 1ST ST,BEND,97701-4619,44.0594,-121.3062
"690 Butler, LLC",44451.00,09-9512-22-01,Jan-00,G5,690 NE BUTLER MARKET RD,BEND,97701-8082,44.0764,-121.2952
"Couch Investments, L.L.C.",44453.00,09-9514-22-01,Jan-00,G5,2699 NE HWY 20,BEND,97701,44.0545,-121.2645
"DRW II, LLC",44454.00,09-9515-22-01,Jan-00,G5,19745 BAKER RD,BEND,97702,43.9929,-121.3361
Deschutes County Public Works,44457.00,09-9518-22-01,Jan-00,G5,61150 SE 27TH ST,BEND,97702-9631,44.0261,-121.2639
"West One Automotive Group, Inc.",44458.00,09-9519-22-01,Jan-00,G5,2025 EAST HIGHWAY 20,BEND,97701,44.0543,-121.2744
L & D of Oregon Inc.,44460.00,09-9521-22-01,Jan-00,G5,1144 NE 3RD,BEND,97701,44.06,-121.3
L & D of Oregon Inc.,44461.00,09-9522-22-01,Jan-00,G5,235 SE 3RD,BEND,97702,44.048,-121.303
Mastercraft Cleaners,11933.00,09-9532-06-01,Jan-00,G6,722 E GREENWOOD,BEND,97701,44.0602,-121.2947
"T & M Bolken Enterprises, L.L.C.",12663.00,09-9534-22-01,Jan-00,G5,64683 COOK AVE,BEND,97701,44.1482,-121.3309
"Fred Meyer Stores, Inc.",14124.00,09-9538-22-01,Jan-00,G5,61535 SOUTH HIGHWAY 97,BEND,97702,44.0358,-121.3053
Truax Corporation,15585.00,09-9542-22-01,Jan-00,G5,912 NW NEWPORT AVE,BEND,97701-1616,44.0622,-121.3254
Truax Corporation,15950.00,09-9543-22-01,Jan-00,G5,1095 SE DIVISION,BEND,97702,44.0387,-121.307
Truax Corporation,16316.00,09-9544-22-01,Jan-00,G5,1220 SE HWY 97,BEND,97701,44.0384,-121.3028
Truax Corporation,16681.00,09-9545-22-01,Jan-00,G5,1745 NE 3RD,BEND,97701,44.0672,-121.3016
Truax Corporation,17046.00,09-9546-22-01,Jan-00,G5,3198 NE HWY 97,BEND,97701,44.0823,-121.3039
Truax Corporation,17411.00,09-9547-22-01,Jan-00,G5,61160 HWY 97,BEND,97702,44.023,-121.3141
"Nore 99, LLC",19968.00,09-9554-22-01,Jan-00,G5,304 NE GREENWOOD AVE,BEND,97701,44.06,-121.3024
"Tore 93, LLC",20699.00,09-9556-22-01,Jan-00,G5,61122 SE HWY 97,BEND,97702,44.02,-121.3164
"Colvin Oil I, LLC",21429.00,09-9558-22-01,Jan-00,G5,718 NW COLUMBIA ST,BEND,97701,44.0569,-121.3263
"Colvin Oil I, LLC",21794.00,09-9559-22-01,Jan-00,G5,1400 COLLEGE WAY NW,BEND,97701,44.0627,-121.3372
"Colvin Oil I, LLC",22160.00,09-9560-22-01,Jan-00,G5,2100 NE HWY. 20,BEND,97701,44.0553,-121.2715
"Colvin Oil I, LLC",22525.00,09-9561-22-01,Jan-00,G5,2409 NE BUTLER MARKET RD.,BEND,97701,44.0849,-121.264
"Colvin Oil I, LLC",22890.00,09-9562-22-01,Jan-00,G5,3305 N HWY 97,BEND,97701,44.0857,-121.3069
"Mid Columbia Producers, Inc.",25447.00,09-9569-22-01,Jan-00,G5,1098 SE DIVISION ST,BEND,97702,44.0417,-121.3067
Bend Oil Company,25812.00,09-9570-22-01,Jan-00,G5,764 NE GREENWOOD,BEND,97701,44.0603,-121.2945
Bend Oil Company,26177.00,09-9571-22-01,Jan-00,G5,61221 S. HWY 97,BEND,97702,44.0263,-121.3136
"Mid Columbia Producers, Inc.",26543.00,09-9572-22-01,Jan-00,G5,705 NE 1ST STREET,BEND,97701,44.057,-121.3062
"Colvin Oil I, LLC",26908.00,09-9573-22-01,Jan-00,G5,981 NW GALVESTON AVE,BEND,97701-2462,44.0566,-121.3255
"Space Age Fuel, Inc.",28369.00,09-9577-22-01,Jan-00,G5,20635 GRANDVIEW DRIVE,BEND,97701,44.1144,-121.2926
Ron's Oil Company,30560.00,09-9583-22-01,Jan-00,G5,62980 HWY N. 97,BEND,97701,44.0882,-121.3045
"Ed Staub and Sons Petroleum, Inc.",18-9516,18-9516-22-01,22,G5,61430 HWY. 140 E,BLY,97623,42.3975,-121.041
Finley Buttes Landfill Company,25-0001,25-0001-TV-01,TV,TV,73221 BOMBING RANGE RD,BOARDMAN,97818,45.7447,-119.623
Oregon Potato Company,25-0002,25-0002-SI-01,SI,SI,650 EAST COLUMBIA,BOARDMAN,97818,45.8423,-119.6721
"Alto Ingredients, Inc.",25-0006,25-0006-ST-01,ST,ST,71335 RAIL LOOP DRIVE,BOARDMAN,97818,45.8557,-119.6551
"Amazon Data Services, Inc.",25-0007,25-0007-ST-01,ST,ST,73575 LEWIS AND CLARK DRIVE,BOARDMAN,97818,45.846,-119.673
"Amazon Data Services, Inc.",25-0008,25-0008-ST-01,ST,ST,79539 RIPPEE RD,BOARDMAN,97818-9698,45.8352,-119.6541
Portland General Electric Company,25-0016,25-0016-TV-01,TV,TV,"CARTY RESERVOIR POWER SITE, TOWER ROAD",BOARDMAN,97818,45.6933,-119.8075
"Love's Travel Stops & Country Stores, Inc.",25-0022,25-0022-22-01,22,G5,78665 TOWER RD,BOARDMAN,97818-8501,45.8096,-119.8988
"Lamb Weston, Inc.",25-0027,25-0027-ST-01,ST,ST,750 NE COLUMBIA AVENUE,BOARDMAN,97818,45.8427,-119.7015
"Amazon Data Services, Inc.",25-0029,25-0029-ST-01,ST,ST,75300 LEWIS & CLARK DR.,BOARDMAN,97818,45.85,-119.6299
Portland General Electric Company,25-0031,25-0031-TV-01,TV,TV,200 ULLMAN BLVD,BOARDMAN,97818,45.8271,-119.7205
"Lamb Weston, Inc.",25-0032,25-0032-ST-01,ST,ST,600 NE COLUMBIA AVE ,BOARDMAN,97818,45.845,-119.6791
"Morrow County Grain Growers, Inc.",25-0033,25-0033-13-01,13,G1,71010 Rail Loop Drive,BOARDMAN,97818,45.8271,-119.7205
"Columbia River Processing, Inc.",25-0036,25-0036-SI-01,SI,SI,79588 RIPPEE RD.,BOARDMAN,97818,45.8441,-119.6575
Tidewater Terminal Co.,25-0038,25-0038-SI-01,SI,SI,79827 ULLMAN DRIVE,BOARDMAN,97818,45.843,-119.7152
"Calbee North America, LLC",25-0039,25-0039-SI-01,SI,SI,72600 LEWIS & CLARK DRIVE,BOARDMAN,97818,45.7525,-119.8118
Finley BioEnergy LLC,25-0041,25-0041-TV-01,TV,TV,73221 BOMBING RANGE ROAD,BOARDMAN,97818,45.7552,-119.6217
"Klean Industries Boardman, LLC",25-0045,25-0045-ST-01,ST,ST,71722 COLUMBIA AVENUE,BOARDMAN,97836,45.5126,-119.384
WOF PNW Threemile Project LLC,25-0047,25-0047-TV-01,TV,TV,75906 THREEMILE RD,BOARDMAN,97818-9663,45.8174,-119.7147
"Zea 2, LLC",25-0048,25-0048-SI-01,SI,SI,71099 RAIL LOOP DR.,BOARDMAN,97818,45.8561,-119.6611
Hattenhauer Distributing Co.,25-0050,25-0050-22-01,22,G5,100 MAIN ST N,BOARDMAN,97818,45.8394,-119.7022
Devin Oil Co. Inc.,25-0052,25-0052-22-01,22,G5,101 N MAIN STREET,BOARDMAN,97818,45.8396,-119.7014
Devin Oil Co. Inc.,25-0053,25-0053-22-01,22,G5,101 FRONT ST,BOARDMAN,97818-9730,45.8362,-119.7016
"Castle Rock Farming, LLC",25-0058,25-0058-SI-01,SI,SI,75906 THREEMILE ROAD,BOARDMAN,97818,45.72,-119.8729
"Amazon Data Services, Inc.",25-0059,25-0059-ST-01,ST,ST,79386 Olson Rd,Boardman,97818,45.835,-119.6852
Port of Morrow,25-0060,25-0060-ST-01,ST,ST,2 MARINE DR NE,BOARDMAN,97818,45.8478,-119.6936
"Beef Northwest Feeders, LLC",25-0061,25-0061-BS-01,BS,BS,66407 TAGGARES LN,BOARDMAN,97818,45.711,-119.8929
Gas Transmisison Northwest LLC,30-0080,30-0080-SI-01,SI,SI,BOMBING RANGE ROAD,BOARDMAN,97818,45.619,-119
Gas Transmission Northwest LLC,18-0072,18-0072-TV-01,TV,TV,HARPOLD VALLEY RD 3 MI E/O BONANZA,BONANZA,97623,42.1742,-121.4399
"Ed Staub and Sons Petroleum, Inc.",18-9505,18-9505-17-01,17,G1,3419 HARPOLD RD,BONANZA,97623,42.1949,-121.409
"Ed Staub and Sons Petroleum, Inc.",18-9535,18-9535-22-01,22,G5,31770 HWY 70,BONANZA,97623,42.1983,-121.4042
"Boring Petroleum, Inc.",13210.00,03-9536-23-01,Jan-00,G4,28320 SE HIGHWAY 212,BORING,97009,45.4324,-122.3719
"Valberg Building Materials, Inc",24898.00,03-9568-22-01,Jan-00,G5,27960 SE HWY 212,BORING,97009,45.4295,-122.3751
"Baba Dalip, LLC",25993.00,03-9571-23-01,Jan-00,G4,24802 SE Highway 224,Boring,97009-8155,45.3891,-122.4078
"N & S Oil, LLC",15401.00,03-9642-23-01,Jan-00,G4,31251 SE Hwy 26,BORING,97009,45.4327,-122.3392
"Adamek Enterprises, Inc. dba Rose City Wood Products",06-0022,06-0022-10-01,10,G3,3 MI S OF BROADBENT,BROADBENT,97414,42.9904,-124.1591
Carnahan Funeral Services Inc.,08-0002,08-0002-12-01,12,G1,1020 FIFIELD ST,BROOKINGS,97415-9605,42.0541,-124.2912
"Pacific Wood Laminates, Inc.",08-0003,08-0003-TV-01,TV,TV,815 N RAILROAD AVE,BROOKINGS,97415,42.05,-124.2797
South Coast Lumber Co.,08-0008,08-0008-ST-01,ST,ST,17345 CARPENTERVILLE RD,BROOKINGS,97415-9749,42.0769,-124.3108
"Freeman Rock, Inc.",08-0021,08-0021-BS-01,BS,BS,99031 S. BANK CHETCO RIVER RD.,BROOKINGS,97415,42.064,-124.2195
Brookings Dry Cleaners,08-0051,08-0051-06-01,6,G6,1107 CHETCO AVENUE,BROOKINGS,97415,42.0555,-124.2925
"Fred Meyer Stores, Inc. dba FM Fuel Stop",08-0058,08-0058-22-01,22,G5,325 5TH ST,BROOKINGS,97415-9658,42.05,-124.2816
"Colvin Oil I, LLC",08-0059,08-0059-22-01,22,G5,1123 CHETCO AVENUE,BROOKINGS,97415,42.0556,-124.293
"Colvin Oil I, LLC dba Harbor Chevron",08-0061,08-0061-22-01,22,G5,16258 HIGHWAY 101 S,BROOKINGS,97415,42.0707,-124.3127
Ronald C. La Franchi dba Ron's Oil Company,08-0064,08-0064-22-01,22,G5,401 CHETCO AVENUE,BROOKINGS,97415,42.0536,-124.2769
"Covanta Marion, Inc.",24-5398,24-5398-TV-01,TV,TV,4850 BROOKLAKE RD NE,BROOKS,97305-9211,45.0493,-122.9635
WSCO Petroleum Corp.,24-9238,24-9238-22-01,22,G5,8975 PORTLAND RD NE,BROOKS,97305-9650,45.0468,-122.9554
Pilot Travel Centers LLC,24-9310,24-9310-22-01,22,G5,4220 BROOKLAKE RD,BROOKS,97305,45.0496,-122.975
Jerry's Gas & Food Mart LLC,22-0048,22-0048-22-01,22,G5,203 BISHOP WAY,BROWNSVILLE,97327,44.3868,-122.986
"Bear Mountain Forest Products, Inc.",22-1034,22-1034-TV-01,TV,TV,34401 LAKE CREEK DR,BROWNSVILLE,97327-9707,44.3724,-123.0107
Donald Nealon Jr dba Brownsville Body Shop,22-8067,22-8067-22-01,22,G5,105 BISHOP WAY,BROWNSVILLE,97327,44.3872,-122.9842
Harney Rock & Paving Co.,13-0018,13-0018-BS-01,BS,BS,457 S DATE AVE,BURNS,97720,43.5802,-119.0485
Ebar Oil Company,13-0019,13-0019-17-01,17,G1,201 E Industrial St,Burns,97720,43.5846,-119.0519
"Ed Staub and Sons Petroleum, Inc.",13-0020,13-0020-17-01,17,G1,429 CRANE BLVD,BURNS,97720,43.5856,-119.0503
"Ed Staub and Sons Petroleum, Inc.",13-0027,13-0027-22-01,22,G5,19 W MONROE ST,BURNS,97720-2041,43.5859,-119.0547
"Coffee Pot Brand, LLC",13-0029,13-0029-22-01,22,G5,596 N BROADWAY,BURNS,97720,43.5908,-119.0531
J and D Fertilizer Ltd.,03-0037,03-0037-SI-01,SI,SI,9205 S KRAXBERGER RD,CANBY,97013-9317,45.2269,-122.6794
"ICC Northwest, Inc.",03-0069,03-0069-25-01,25,G1,390 S REDWOOD ST,CANBY,97013-2459,45.2628,-122.6761
"G.T.E. Metal Fabricators, Inc.",03-0070,03-0070-25-01,25,G1,24530 S. CASS ROAD,CANBY,97013-9112,45.2515,-122.7175
"Austen's Body Shop, Inc.",03-0077,03-0077-27-01,27,G1,801 NE 4TH AVE,CANBY,97013-2308,45.2667,-122.6849
Steel Tech Enterprises Inc.,03-0089,03-0089-29-01,29,G4,1420 SE TOWNSHIP RD,CANBY,97013-7758,45.2597,-122.6776
"Fred Meyer Stores, Inc.",03-0109,03-0109-23-01,23,G4,369 SE 1ST AVE,CANBY,97013-3805,45.2636,-122.6887
BBC Steel Corp.,03-0121,03-0121-25-01,25,G2,2001 SE TOWNSHIP ROAD,CANBY,97013,45.2592,-122.6701
Northwest Aggregates Co.,11749.00,03-2032-08-01,Jan-00,G2,24420 S HWY 99E,CANBY,97013,45.25,-122.7136
"Clarios,LLC",12479.00,03-2634-ST-01,ST,ST,800 NW 3RD AVE,CANBY,97013,45.261,-122.7041
"Marc Nelson Oil Produts, Inc.",44268.00,03-9513-17-01,Jan-00,G1,601 SW 1ST AVE,CANBY,97013-3821,45.2599,-122.6986
Canby Station Cleaners,12114.00,03-9533-06-01,Jan-00,G6,106 N IVY ST,CANBY,97206,45.2627,-122.6925
Space Age Fuel Inc,15036.00,03-9541-23-01,Jan-00,G4,1120 SW 1ST AVE,CANBY,97013,45.2562,-122.7048
WSCO Petroleum Corp.,21610.00,03-9559-23-01,Jan-00,G4,400 SW 1ST AVE,CANBY,97013-3819,45.261,-122.696
"Marc Nelson Oil Products, Inc.",29646.00,03-9581-22-01,Jan-00,G5,640 SW 2nd Ave,CANBY,97013,45.2589,-122.6981
"Stein Oil Co., Inc.",30376.00,03-9583-23-01,Jan-00,G4,262 SE 1ST ST,CANBY,97013,45.2634,-122.6888
Jong S. Lim,36220.00,03-9599-23-01,Jan-00,G4,25995 S HWY 170,CANBY,97013,45.2436,-122.6859
"Thabet Management, Inc.",19054.00,03-9652-23-01,Jan-00,G4,453 SE 1ST AVE,CANBY,97013-3807,45.264,-122.6879
DS Canby LLC,23802.00,03-9665-23-01,Jan-00,G4,293 SW 1ST AVE,CANBY,97013-3814,45.2614,-122.6947
City of Cannon Beach,04-0019,04-0019-22-01,22,G5,340 ELK CREEK RD,CANNON BEACH,97110,45.8886,-123.955
"Ed Staub and Sons Petroleum, Inc.",12-0037,12-0037-17-01,17,G1,126 N WASHINGTON ST,CANYON CITY,97820,44.388,-118.9492
"Ed Staub and Sons Petroleum, Inc.",12-0046,12-0046-22-01,22,G5,132 1/2 N WASHINGTON ST,CANYON CITY,97820,44.3877,-118.9493
"Ed Staub and Sons Petroleum, Inc.",12-0047,12-0047-22-01,22,G5,133 N WASHINGTON ST,CANYON CITY,97820,44.3887,-118.9491
Shirtcliff Oil Co.,10-0186,10-0186-22-01,22,G5,358 N. MAIN STREET,CANYONVILLE,97417,42.9315,-123.2809
"Ed Staub and Sons Petroleum, Inc.",10-0212,10-0212-22-01,22,G5,203 SW 4TH STREET,CANYONVILLE,97417,42.9267,-123.2733
"Thabet Management, Inc.",10-0247,10-0247-22-01,22,G5,211 W 5TH,CANYONVILLE,97417,42.9249,-123.2786
"Carlton Seed, L.L.C.",36-0012,36-0012-15-01,15,G1,7480 NW MEADOW LAKE RD,CARLTON,97111,45.2941,-123.1869
Carlton Corner Service & Towing,36-9517,36-9517-22-01,22,G5,150 N. YAMHILL STREET,CARLTON,97111,45.29,-123.2
"Bear Mountain Forest Products, Inc.",14-0003,14-0003-ST-01,ST,ST,1415 NW FOREST LANE,CASCADE LOCKS,97014,45.6797,-121.8554
CCL Chevron,14-9538,14-9538-22-01,22,G5,437 NW WA NA PA ST.,CASCADE LOCKS,97014,45.6662,-121.8951
"CECO, Inc.",14-9547,14-9547-22-01,22,G5,425 WA NA PA,CASCADE LOCKS,97014,45.6664,-121.895
Oregon Caves National Monument,17-0088,17-0088-22-01,22,G5,19000 CAVES HWY,CAVE JUNCTION,97523-9716,42.1439,-123.4621
"Crater Rim, Inc.",17-0089,17-0089-22-01,22,G5,409 REDWOOD HWY,CAVE JUNCTION,97523,42.1533,-123.6502
"Colvin Oil I, LLC dba Cave Junction 76",17-0092,17-0092-22-01,22,G5,112 S REDWOOD HWY,CAVE JUNCTION,97523,42.1533,-123.6502
George Lee McElroy dba Holland Store,17-0114,17-0114-22-01,22,G5,7251 HOLLAND LOOP RD,CAVE JUNCTION,97523-9720,42.1275,-123.539
"Southern Oregon Ready Mix, LLC",15-0024,15-0024-09-01,9,G1,6422 BLACKWELL RD,CENTRAL POINT,97502,42.4117,-122.9446
City of Medford,15-0030,15-0030-ST-01,ST,ST,1100 KIRTLAND RD,CENTRAL POINT,97502-9439,42.4348,-122.889
Savage Redimix,15-0036,15-0036-09-01,9,G1,7260 BLACKWELL RD.,CENTRAL POINT,97502-9301,42.4195,-122.9548
"Crater Sand & Gravel, Inc.",15-0038,15-0038-08-01,8,G2,7260 BLACKWELL RD.,CENTRAL POINT,97502-9301,42.4195,-122.9548
Knife River Corporation - Northwest,15-0064,15-0064-ST-01,ST,ST,3750 KIRTLAND ROAD,CENTRAL POINT,97502,42.4253,-122.9586
Do It Now Inc dba Advanced Truck Body & Equipment Co.,15-0077,15-0077-27-01,27,G1,4825 TABLE ROCK RD,CENTRAL POINT,97502-3155,42.3872,-122.8854
Grange Cooperative Supply Association,15-0084,15-0084-14-01,14,G1,316 S FRONT ST,CENTRAL POINT,97502-2393,42.3714,-122.9147
Costco Wholesale Corporation,15-0130,15-0130-22-01,22,G5,3075 Hamrick Rd,Central Point,97502,42.3754,-122.8873
"LTM, Incorporated dba Knife River Materials",15-9538,15-9538-07-01,7,G3,3750 KIRTLAND ROAD,CENTRAL POINT,97502,42.4284,-122.9437
"LTM, Incorporated",15-9540,15-9540-09-01,9,G1,3750 KIRTLAND RD,CENTRAL POINT,97502-9316,42.4231,-122.9586
"C & M Western, Inc. dba Conger-Morris Crematory",15-9542,15-9542-12-01,12,G1,800 S FRONT ST,CENTRAL POINT,97502-2726,42.3672,-122.9124
R. W. Hays Co.,15-9547,15-9547-17-01,17,G1,191 BATEMAN DR,CENTRAL POINT,97502-3277,42.3965,-122.8854
"Colvin Oil I, LLC",15-9563,15-9563-22-01,22,G5,1510 E PINE ST,CENTRAL POINT,97502,42.3784,-122.9006
"Leathers Enterprises, Incorporated dba Leathers Oil Co.",15-9571,15-9571-22-01,22,G5,5020 TABLE ROCK RD,CENTRAL POINT,97502,42.3895,-122.8849
Pilot Travel Centers LLC,15-9577,15-9577-22-01,22,G5,1600 E PINE ST,CENTRAL POINT,97502-2874,42.3786,-122.9
WSCO Petroleum Corp. dba Astro Express Mart,15-9579,15-9579-22-01,22,G5,16 N FRONT ST,CENTRAL POINT,97502,42.3743,-122.9179
"Colvin Oil I, LLC dba Central Point Circle K 76",15-9595,15-9595-22-01,22,G5,1065 E PINE ST,CENTRAL POINT,97502-2454,42.3785,-122.908
C. Fred Schlecht Jr.,15-9598,15-9598-06-01,6,G6,40 E PINE ST,CENTRAL POINT,97502-2248,42.374,-122.9177
"Ed Staub & Sons Petroleum, Inc.",15-9612,15-9612-22-01,22,G5,1125 E PINE ST,CENTRAL POINT,97502-2456,42.3786,-122.9073
Erickson Incorporated,15-9638,15-9638-27-01,27,G1,3100 WILLOW SPRINGS RD,CENTRAL POINT,97502,42.4044,-122.9464
"Dardanelles Community Store, LLC",15-9641,15-9641-22-01,22,G5,9625 OLD STAGE RD,CENTRAL POINT,97502-9645,42.4229,-123.0424
"Giddings Boat Works, Inc.",06-0049,06-0049-25-01,25,G1,63106 TROLLER ROAD,CHARLESTON,97420,43.3426,-124.3035
Pilot Travel Centers LLC,18-0007,18-0007-22-01,22,G5,109450 HWY 97 N,CHEMULT,97731,43.2156,-121.7833
Gas Transmission Northwest LLC,18-0096,18-0096-TV-01,TV,TV,1/4MI W OF DIAMOND LAK JC,CHEMULT,97731,43.0813,-121.8282
"Ed Staub and Sons Petroleum, Inc.",18-9536,18-9536-22-01,22,G5,109481 HWY. 97,CHEMULT,97731,43.2194,-121.7844
"JELD-WEN, Inc.",18-0089,18-0089-ST-01,ST,ST,31725 HWY 97 N STE B,CHILOQUIN,97624-9723,42.5118,-121.881
"Ed Staub and Sons Petroleum, Inc.",18-9518,18-9518-22-01,22,G5,38111 HWY 97 N,CHILOQUIN,97624,42.5711,-121.8817
"Ed Staub and Sons Petroleum, Inc.",19-0036,19-0036-22-01,22,G5,87497 CHRISTMAS VALLEY HIGHWAY,CHRISTMAS VALLEY,97641,43.2382,-120.6804
"Virk Petroleum The Dalles, LLC",33-0048,33-0048-22-01,22,G5,3213 BRET CLODFELTER WAY,CITY OF THE DALLES,97058-9718,45.6023,-121.1293
Safeway Inc.,33-0057,33-0057-22-01,22,G5,520 MOUNT HOOD ST,CITY OF THE DALLES,97058-3555,45.602,-121.1963
"Fred Meyer, Inc.",03-0004,03-0004-ST-01,ST,ST,16253 SE 122ND AVE,CLACKAMAS,97015-9136,45.4048,-122.5391
"Glacier Northwest, Inc.",03-0007,03-0007-09-01,9,G1,11340 SE JENNIFER ST,CLACKAMAS,97015,45.4027,-122.5451
Sunrise Water Facility,03-0043,03-0043-18-01,18,G2,10560 SE Mather Rd,Clackamas,97015-8243,45.4198,-122.5542
Kaiser Foundation Health Plan of the NW,03-0048,03-0048-18-01,18,G2,10180 SE SUNNYSIDE RD,CLACKAMAS,97015,45.432,-122.563
Kaiser Foundation Health Plan of the NW,03-0051,03-0051-BS-01,BS,BS,10180 SE SUNNYSIDE RD,CLACKAMAS,97015-8970,45.4335,-122.5588
"Pesznecker Brothers, Inc.",03-0052,03-0052-25-01,25,G1,15500 SE 102ND AVE,CLACKAMAS,97015-9151,45.4104,-122.5586
"Wishart Welding & General Fabrication, Inc.",03-0064,03-0064-29-01,29,G4,12670 SE CAPPS RD,CLACKAMAS,97015,45.399,-122.5311
"Conveyco Mfg, Co.",03-0065,03-0065-25-01,25,G1,15151 SE MINUTEMAN WAY,CLACKAMAS,97015,45.4129,-122.5645
"Hanel Group, Inc.",03-0081,03-0081-27-01,27,G1,10037 SE MATHER,CLACKAMAS,97015,45.4166,-122.5605
Costco Wholesale Corporation,03-0084,03-0084-23-01,23,G4,13130 SE 84TH AVE,CLACKAMAS,97015-9733,45.4278,-122.5754
Wilbur Ellis Company,03-0088,03-0088-14-01,14,G1,12530 SE JENNIFER ST,CLACKAMAS,97015-9011,45.4041,-122.5354
Clackamas River Water,03-0092,03-0092-18-01,18,G2,9100 SE MANGAN DR,CLACKAMAS,97015,45.3996,-122.5599
"PECO, Inc,",03-0098,03-0098-SI-01,SI,SI,11241 SE HWY 212,CLACKAMAS,97015,45.4076,-122.5483
Portland General Electric Company,03-0099,03-0099-SI-01,SI,SI,16782 SE 130TH AVE,CLACKAMAS,97015,45.4007,-122.5304
Vigor Works LLC,03-0110,03-0110-25-01,25,G1,9700 SE LAWNFIELD RD,CLACKAMAS,97015-7636,45.4209,-122.5622
"Belair Auto Body, Inc.",03-0137,03-0137-BS-01,BS,BS,14721 SE 82ND DR,CLACKAMAS,97015,45.4167,-122.5707
"The Refinishing Touch, Inc.",03-0139,03-0139-BS-01,BS,BS,16075 SE 106TH AVE,CLACKAMAS,97015-9503,45.4065,-122.5537
Coachman Auto Body Co,03-0140,03-0140-BS-01,BS,BS,9394 SE TOLBERT ST,CLACKAMAS,97015,45.4126,-122.567
"Miles Fiberglass & Composites, Inc.",03-0159,03-0159-TV-01,TV,TV,11401 SE JENNIFER STREET,CLACKAMAS,97015,45.4038,-122.543
"PCC Structurals, Inc.",27089.00,03-2674-ST-01,ST,ST,13340 SE 84TH,CLACKAMAS,97015,45.4261,-122.5702
"CECO, Inc.",44279.00,03-2724-17-02,Jan-00,G1,9911 SE ELON ST,CLACKAMAS,97015,45.407,-122.5617
"Consolidated Metco, Inc.",13940.00,03-2738-SI-01,SI,SI,10448 HWY 212,CLACKAMAS,97015,45.4074,-122.5545
Albertson's LLC,19784.00,03-2754-ST-01,ST,ST,9450 SE MANGAN DR,CLACKAMAS,97015-9576,45.3997,-122.5594
The S. Morris Co.,44263.00,03-9508-12-01,Jan-00,G1,15484 SE 94TH AVE,CLACKAMAS,97015,45.4106,-122.5666
"Universal Recycling Technologies, LLC",44266.00,03-9511-SI-01,SI,SI,10151 SE JENNIFER ST,CLACKAMAS,97015-9509,45.4031,-122.5608
"Plaid Pantries, Inc.",18688.00,03-9551-23-01,Jan-00,G4,10218 SE HWY 212,CLACKAMAS,97015,45.4072,-122.5574
"Space Age Fuel,  Inc.",19784.00,03-9554-23-01,Jan-00,G4,13488 SE HWY 212,CLACKAMAS,97015,45.4101,-122.5231
"APRO, LLC",20880.00,03-9557-23-01,Jan-00,G4,12230 SE SUNNYSIDE RD,CLACKAMAS,97015,45.4285,-122.5366
Khan Oil LLC,25263.00,03-9569-23-01,Jan-00,G4,12405 SE 97TH AVE,CLACKAMAS,97015-9762,45.4329,-122.5641
"Stein Oil Co., Inc.",26359.00,03-9572-23-01,Jan-00,G4,10111 HWY 212,CLACKAMAS,97015,45.4075,-122.5597
Stein Oil Co,30742.00,03-9584-23-01,Jan-00,G4,10596 SE HWY 212,CLACKAMAS,97015,45.4076,-122.5542
"Jacksons Food Stores, Inc.",11749.00,03-9632-23-01,Jan-00,G4,16002 SE 82ND DR,CLACKAMAS,97015,45.4077,-122.5684
Cain Petroleum Incorporated,19419.00,03-9653-23-01,Jan-00,G4,15901 SE 82ND DR,CLACKAMAS,97015,45.4085,-122.5692
Georgia-Pacific Consumer Operations LLC,04-0004,04-0004-TV-01,TV,TV,92326 TAYLORVILLE RD,CLATSKANIE,97016-8264,46.1558,-123.4058
Wilson Oil Co.,05-0001,05-0001-22-01,22,G5,985 NE 5th St,CLATSKANIE,97016,46.1031,-123.1942
"Cascade Kelly Holdings, LLC",05-0006,05-0006-ST-01,ST,ST,81200 KALLUNKI RD,CLATSKANIE,97016-2209,46.176,-123.1684
Clatskanie People's Utility District,05-0011,05-0011-ST-01,ST,ST,92328 TAYLORVILLE RD,CLATSKANIE,97016-8264,46.0998,-123.1965
"RSG Forest Products, Inc.",05-0016,05-0016-10-01,10,G3,69480 BANZER RD,CLATSKANIE,97016-7295,46.0034,-123.2995
Cascade Kelly Holdings LLC,05-0023,05-0023-ST-01,ST,ST,81200 KALLUNKI RD,CLATSKANIE,97016-2244,46.1712,-123.1567
Stimson Lumber Company,05-1777,05-1777-10-01,10,G3,865 Stimson Mill Rd,Clatskanie,97016,46.1058,-123.2342
Portland General Electric Company,44336.00,05-2520-TV-01,TV,TV,80997 KALLUNKI RD,CLATSKANIE,97016-2209,46.1712,-123.1567
Portland General Electric-Port Westward,44322.00,05-2606-ST-01,ST,ST,80997 KALLUNKI RD,CLATSKANIE,97016-2209,46.1712,-123.1566
"G Hardeep G, Inc.",44324.00,05-2608-22-01,Jan-00,G5,260 W Columbia River Hwy,Clatskanie,97016,46.1053,-123.2059
"Clatskanie Chevron Food Mart, LLC",44343.00,05-2627-22-01,Jan-00,G5,25 W COLUMBIA RIVER HWY,CLATSKANIE,97016,46.1023,-123.2005
"Market Development & Management, Inc.",16862.00,03-9546-22-01,Jan-00,G5,20867 S HIGHWAY 211,COLTON,97017-9401,45.1818,-122.398
"Nolz, LLC",21245.00,03-9658-22-01,Jan-00,G5,19668 S HWY 211,COLTON,97017,45.1696,-122.4722
"Forest Energy Oregon, LLC",44321.00,05-2605-SI-01,SI,SI,2305 2ND STREET,COLUMBIA CITY,97018,45.8937,-122.8102
Devin Oil Co. Inc.,11-0010,11-0010-17-01,17,G1,316 E COTTONWOOD,CONDON,97823,45.2431,-120.1825
Hattenhauer Distributing Co.,11-0013,11-0013-22-01,22,G5,205 E WALNUT,CONDON,97823,45.2375,-120.1833
"Top Service Body Shop, Inc.",06-0034,06-0034-27-01,27,G1,180 INGERSOLL ST,COOS BAY,97420-1418,43.3594,-124.2144
"Sause Bros., Inc.",06-0039,06-0039-25-01,25,G1,40 ROSS INLET RD,COOS BAY,97420,43.3657,-124.1779
"Fred Meyer Stores, Inc.",06-0042,06-0042-22-01,22,G5,1075 S BROADWAY,COOS BAY,97420-1450,43.3566,-124.2132
GMA Garnet (USA) Corp.,06-0063,06-0063-SI-01,SI,SI,63776 MULLEN ROAD ,COOS BAY,97420,43.3572,-124.2028
"CECO, Inc.",06-0064,06-0064-22-01,22,G5,525 N. BROADWAY,COOS BAY,97420,43.3714,-124.213
Bay Area Health District dba Bay Area Hospital,06-0077,06-0077-11-01,11,G2,1775 THOMPSON RD,COOS BAY,97420,43.3829,-124.2334
"LTM, Incorporated",06-0084,06-0084-09-01,9,G1,2600 HWY 101 S,COOS BAY,97420,43.335,-124.1952
"Coastal Cremation and Funeral Service, LLC",06-0104,06-0104-12-01,12,G1,1525 NW OCEAN BLVD,COOS BAY,97420,43.3888,-124.2594
Bassett-Hyland Energy Company,06-0120,06-0120-17-01,17,G1,425 LOCKHART,COOS BAY,97420,43.3547,-124.2165
Craig and Craig Inc. dba TNT Market,06-0124,06-0124-22-01,22,G5,899 'D' ST,COOS BAY,97420,43.3648,-124.1902
Bassett-Hyland Energy Company,06-0127,06-0127-22-01,22,G5,1059 EVANS BOULEVARD,COOS BAY,97420,43.3571,-124.2128
Tesoro Refining & Marketing Company LLC,06-0129,06-0129-22-01,22,G5,2053 NEWMARK AVE,COOS BAY,97420,43.3918,-124.2523
WSCO Petroleum Corp.,06-0133,06-0133-22-01,22,G5,997 NEWMARK,COOS BAY,97420,43.3915,-124.2704
Bassett-Hyland Energy Company,06-0136,06-0136-22-01,22,G5,392 S 4TH ST,COOS BAY,97420-1567,43.3651,-124.2163
"CECO, Inc.",06-0139,06-0139-22-01,22,G5,1670 OCEAN BOULEVARD,COOS BAY,97420,43.3774,-124.2336
"CECO, Inc.",06-0143,06-0143-22-01,22,G5,1655 S. HIGHWAY 101,COOS BAY,97420,43.3833,-124.2788
"CECO, Inc.",06-0144,06-0144-22-01,22,G5,1064 EVANS BOULEVARD,COOS BAY,97420,43.357,-124.2127
Ronald C. La Franchi dba Ron's Oil Company,06-0159,06-0159-22-01,22,G5,962 S 1ST ST,COOS BAY,97420,43.3587,-124.2119
Mayper Corporation,06-0161,06-0161-22-01,22,G5,600 N BAYSHORE DRiVE,COOS BAY,97420,43.371,-124.2119
Roseburg Forest Products Co.,06-0010,06-0010-TV-01,TV,TV,CEDAR POINT RD,COQUILLE,97423,43.1802,-124.2172
"Westrum Funeral Services, Inc.",06-0013,06-0013-12-01,12,G1,94105 RINK CREEK ROAD,COQUILLE,97423,43.1637,-124.1557
Bassett-Hyland Energy Company,06-0128,06-0128-22-01,22,G5,341 W. HIGHWAY 42,COQUILLE,97423,43.1769,-124.189
"CECO, Inc.",06-0150,06-0150-22-01,22,G5,496 CENTRAL,COQUILLE,97423,43.1869,-124.1941
Ronald C. La Franchi dba Ron's Oil Company,06-0157,06-0157-22-01,22,G5,240 W. MAIN,COQUILLE,97423,43.1747,-124.1905
GPO Investments LLC,26-9756,26-9756-22-01,22,G5,36801 NE CROWN POINT HWY,CORBETT,97019,45.54,-122.2141
Tarr LLC,34-0049,34-0049-17-01,17,G1,601 E Baseline St,Cornelius,97113,45.5201,-123.0643
Knights Offroad & Collision,34-0218,34-0218-BS-01,BS,BS,1875 BASELINE ST,CORNELIUS,97113,45.52,-123.0498
Jubitz Corporation,34-0242,34-0242-22-01,22,G5,601 Baseline St,Cornelius,97113,45.5199,-123.0643
Summit Natural Energy Corporation,34-9510,34-9510-SI-01,SI,SI,535 N. 4TH AVE,CORNELIUS,97113,45.5248,-123.0677
"Cornelius Fast Service, Inc.",34-9574,34-9574-23-01,23,G4,990 N ADAIR ST,CORNELIUS,97113-9124,45.5212,-123.0599
EATA LLC,34-9577,34-9577-23-01,23,G4,845 N Adair St,CORNELIUS,97113,45.5209,-123.0613
"Cornelius Food/Oil, LLC",34-9580,34-9580-23-01,23,G4,1894 BASELINE ST,CORNELIUS,97113-8208,45.52,-123.0494
"Fred Meyer Stores, Inc.",34-9607,34-9607-23-01,23,G4,2222 SW BASELINE ,CORNELIUS,97113-8616,45.5205,-123.0447
Cornelius Oil LLC,34-9702,34-9702-23-01,23,G4,2888 BASELINE ST,CORNELIUS,97113-4604,45.52,-123.0359
"HP Computing and Printing, Inc.",02-0005,02-0005-ST-01,ST,ST,1000 NE CIRCLE BLVD,CORVALLIS,97330-4241,44.5855,-123.2434
"Demoss-Durdan Funeral Home and Crematory, Inc.",02-0010,02-0010-12-01,12,G1,815 NW BUCHANAN AVE,CORVALLIS,97330,44.576,-123.2613
"Fred Meyer Stores, Inc.",02-0020,02-0020-22-01,22,G5,1535 NW 9TH ST,CORVALLIS,97330-4512,44.582,-123.2589
Knife River Corporation - Northwest,19756.00,02-2054-09-01,Jan-00,G1,28602 HWY 34,CORVALLIS,97339,44.56,-123.2463
Good Samaritan Hospital,34366.00,02-2094-11-01,Jan-00,G2,3600 NW SAMARITAN DR,CORVALLIS,97330,44.6033,-123.2529
CPM Development Corporation,44252.00,02-2125-09-01,Jan-00,G1,28054 PAYNE RD,CORVALLIS,97333,44.4833,-123.283
Hollingsworth & Vose Fiber Company,26696.00,02-2173-ST-01,ST,ST,1551 CRYSTAL LAKE DR,CORVALLIS,97333,44.5513,-123.257
CPM Development Corporation,28522.00,02-2178-08-01,Jan-00,G2,28054 PAYNE RD,CORVALLIS,97333,44.4833,-123.283
Oregon State University,35827.00,02-2298-ST-01,ST,ST,3452 SW Jefferson Way,CORVALLIS,97331-2001,44.5625,-123.2742
Oregon State University - RAIL,44251.00,02-2524-SI-01,SI,SI,53RD & HARRISON ST,CORVALLIS,97330,44.55,-123.2708
Knife River Corporation - Northwest,20121.00,02-2555-08-01,Jan-00,G2,28602 HWY 34,CORVALLIS,97339,44.56,-123.2463
"Valley Landfills, Inc.",44229.00,02-9502-TV-01,TV,TV,COFFIN BUTTE ROAD,Corvallis,97330,44.6994,-123.2236
Pacific Northwest Generating Cooperative,44230.00,02-9503-TV-01,TV,TV,29160 COFFIN BUTTE RD.,CORVALLIS,97330,44.6959,-123.2345
"Frenchay Investments, LLC dba City Limits",44240.00,02-9513-22-01,Jan-00,G5,5800 NW HIGHWAY 99W,CORVALLIS,97330,44.5917,-123.2438
Truax Corporation,44242.00,02-9515-22-01,Jan-00,G5,1450 NE 9TH,CORVALLIS,97330,44.5805,-123.2598
Truax Corporation,44243.00,02-9516-22-01,Jan-00,G5,1680 SW 3RD ST,CORVALLIS,97333-1239,44.5492,-123.2657
Truax Corporation,44244.00,02-9517-22-01,Jan-00,G5,2635 NW 9TH ST,CORVALLIS,97330-3855,44.5944,-123.252
Truax Corporation,44245.00,02-9518-22-01,Jan-00,G5,245 NW 3RD ST,CORVALLIS,97330-4801,44.5656,-123.2602
Truax Corporation,44246.00,02-9519-22-01,Jan-00,G5,300 SW 4TH ST,CORVALLIS,97333-4623,44.5625,-123.263
Truax Corporation,44248.00,02-9521-22-01,Jan-00,G5,820 NW KINGS BLVD,CORVALLIS,97330-5623,44.5756,-123.2755
"Jacksons Food Stores, Inc. dba Jacksons Food Stores #111",44249.00,02-9522-22-01,Jan-00,G5,1334 NW CIRCLE BLVD,CORVALLIS,97330-1302,44.5887,-123.2676
"Jacksons Food Stores, Inc. dba Jacksons Food Stores #110",44250.00,02-9523-22-01,Jan-00,G5,2075 NW CIRCLE BLVD,CORVALLIS,97330-1314,44.5863,-123.2757
Safeway Inc.,44252.00,02-9525-22-01,Jan-00,G5,5100 SW PHILOMATH BLVD,CORVALLIS,97333-1767,44.5514,-123.3097
"Corvallis PP, LLC",44253.00,02-9526-22-01,Jan-00,G5,1260 SW 3RD ST,CORVALLIS,97333-1243,44.5526,-123.2654
"Freebird, Inc.",22-0028,22-0028-27-01,27,G1,29136 HIGHWAY 34 # C,CORVALLIS,97321,44.5639,-123.224
"Stahlbush Island Farms, Inc.",22-8050,22-8050-SI-01,SI,SI,3122 SE STAHLBUSH ISLAND RD,CORVALLIS,97333-2709,44.5396,-123.2351
"DAR USA, Inc.",10-0111,10-0111-22-01,22,G5,520 BEAR CREEK RD,COTTAGE GROVE,97424,43.7219,-123.2057
Dollars Corner LLC,31-9513,31-9513-22-01,22,G5,808 MAIN ST,COVE,97824,45.297,-117.8088
"Crater Lake Hospitality, LLC",18-9545,18-9545-22-01,22,G5,569 MAZAMA VILLAGE DRIVE,CRATER LAKE,97731,42.897,-122.1292
"Ed Staub and Sons Petroleum, Inc.",18-9504,18-9504-17-01,17,G1,CRESCENT CUTOFF RD & RR TRACKS (NE CORNE,CRESCENT,97733,43.4629,-121.6969
"Crescent Shell, Inc.",18-9508,18-9508-22-01,22,G5,136590 HWY. 97 NORTH,CRESCENT,97733,43.4625,-121.6955
Odell Sportsman Center,18-9514,18-9514-22-01,22,G5,19954 HWY 58,CRESCENT LAKE,97425,43.5276,-121.9439
Bright Wood Corporation,16-0008,16-0008-10-01,10,G3,710 C ST,CULVER,97734,44.5247,-121.2165
"Leathers Enterprises, Incorporated",16-0035,16-0035-22-01,22,G5,603 1ST STREET,CULVER,97734,44.5232,-121.2104
"Forest River, Inc.",27-0004,27-0004-SI-01,SI,SI,1429 SE UGLOW AVE,DALLAS,97338-2615,44.9152,-123.3096
"APRO, LLC dba My Goods Market #7790",27-0009,27-0009-22-01,22,G5,129 E ELLENDALE AVE,DALLAS,97338-1509,44.9295,-123.3108
"Meduri Farms, Inc.",27-0012,27-0012-SI-01,SI,SI,12375 Smithfield Rd,Dallas,97338-9587,44.962,-123.285
Mint Valley Paper West LLC,27-0026,27-0026-SI-01,SI,SI,1520 SE GODSEY RD,DALLAS,97338,44.9142,-123.2949
"Bollman, Inc.",27-8032,27-8032-12-01,12,G1,287 SW WASHINGTON ST.,DALLAS,97338,44.9193,-123.3199
"Marc Nelson Oil Products, Inc.",27-8043,27-8043-22-01,22,G5,185 W ELLENDALE,DALLAS,97338,44.9289,-123.3149
Baba Deep Singh 11 Inc,27-8046,27-8046-22-01,22,G5,120 E ELLENDALE AVE,DALLAS,97338-1510,44.9295,-123.3114
Amy Houghtaling dba Dallas City Cleaners,27-8047,27-8047-06-01,6,G6,144 SW WASHINGTON ST,DALLAS,97338-3402,44.9194,-123.3176
Truax Corporation,27-8052,27-8052-22-01,22,G5,119 SE WASHINGTON,DALLAS,97338,44.9192,-123.3163
Uddin LLC dba Dallas Fuel and Food Mart,27-8053,27-8053-22-01,22,G5,430 MAIN ST,DALLAS,97338-3307,44.926,-123.3149
Safeway Inc.,27-8054,27-8054-22-01,22,G5,138 W ELLENDALE AVE,DALLAS,97338-1408,44.9294,-123.3126
"Shaw's Fiberglass and Plastics, Inc.",03-0017,03-0017-TV-01,TV,TV,19402 SE FOSTER ROAD,DAMASCUS,97089,45.4424,-122.4746
"Safeway, Inc.",15766.00,03-9543-23-01,Jan-00,G4,20151 SE HIGHWAY 212,Damascus,97089,45.42,-122.3799
"FCG, Inc",20515.00,03-9556-23-01,Jan-00,G4,20265 SE HIGHWAY 212,DAMASCUS,97089,45.4175,-122.4542
Baker Rock Resources,36-2010,36-2010-08-01,8,G2,101 E 3RD ST,DAYTON,97114,45.225,-123.0778
"C.C. Meisel Co., Inc.",36-5088,36-5088-08-01,8,G2,MALLARD LN .5 MI E,DAYTON,97114,45.2201,-123.0912
Baker Rock Crushing Co.,36-5330,36-5330-07-01,7,G3,101 E 3RD ST,DAYTON,97114,45.225,-123.0778
Kamph Rock Crushing Co. Inc.,36-7023,36-7023-08-01,8,G2,14360 Lafayette Highway SE,Dayton,97114,45.1094,-123.1051
Dyno Nobel Incorporated,15462.00,05-2042-ST-01,ST,ST,63149 COLUMBIA RIVER HWY,Deer Island,97054-9401,45.9122,-122.8286
Deer Island Store,44329.00,05-2613-22-01,Jan-00,G5,64561 COLUMBIA RIVER HWY,DEER ISLAND,97054-9411,45.9557,-122.8655
"Raman, Inc. dba Center Market #18",21-0014,21-0014-22-01,22,G5,466 NE HWY 101,DEPOE BAY,97341,44.8175,-124.0628
Icnava Inc dba Nava's Market,21-0074,21-0074-22-01,22,G5,20 SE SCHOOLHOUSE ST,DEPOE BAY,97341,44.8047,-124.0605
Shauna Edwards dba River's Run,24-9286,24-9286-22-01,22,G5,105 BREITENBUSH ROAD,DETROIT,97342,44.7383,-122.1518
Oregon Door Company,10-0008,10-0008-SI-01,SI,SI,477 DILLARD GARDENS RD,DILLARD,97432,43.109,-123.4152
Roseburg Forest Products Co.,10-0025,10-0025-TV-01,TV,TV,Old Hwy 99S,DILLARD,97432,42.9356,-123.3996
Umpqua Lumber Co.,10-0027,10-0027-ST-01,ST,ST,4346 ROBERTS MTN RD,DILLARD,97432,43.0833,-123.3667
"Diversified Wood Resources, LLC",10-0004,10-0004-10-01,10,G3,566 APPLEGATE AVE,DRAIN,97435,43.655,-123.3133
"Moman Lumber, Inc.",10-0038,10-0038-10-01,10,G3,166 LAUREL HILLS DR.,DRAIN,97435,43.6785,-123.3007
"Emerald Forest Products, Inc.",10-0054,10-0054-TV-01,TV,TV,649 FIR ST,DRAIN,97435,43.6585,-123.3228
Dankar LLC,10-0231,10-0231-22-01,22,G5,139 N. CEDAR STREET,DRAIN,97435,43.6622,-123.3183
"M & W Fiberglass, Inc.",36-0041,36-0041-SI-01,SI,SI,20929 NE NIEDERBERGER ROAD,DUNDEE,97115,45.274,-123.0463
"Youssef, Inc.",36-9526,36-9526-22-01,22,G5,109 N. HIGHWAY 99W,DUNDEE,97115,45.2557,-123.0347
Ash Grove Cement Company,01-0029,01-0029-TV-01,TV,TV,33060 SHIRTTAIL CREEK RD,DURKEE,97905,44.5428,-117.4218
Eagle Foundry Co.,44286.00,03-2631-ST-01,ST,ST,23123 SE EAGLE CREEK RD,EAGLE CREEK,97022,45.3552,-122.3539
"Eagle Creek Rock Products, LLC",24898.00,03-2668-08-01,Jan-00,G2,25375 SE TALON RD,EAGLE CREEK,97022,45.3403,-122.3521
"Delta Mini Mart, Inc.",26724.00,03-9573-23-01,Jan-00,G4,29629 SE HWY 224,EAGLE CREEK,97022,45.358,-122.3587
NW Ventures LLC dba Eagle Point Arco,15-0092,15-0092-22-01,22,G5,10668 HIGHWAY 62,EAGLE POINT,97524,42.4665,-122.8124
"Boise Cascade Wood Products, L.L.C.",31-0006,31-0006-TV-01,TV,TV,90 S 21ST AVE,ELGIN,97827-9614,45.5641,-117.9353
Henderson Fuel Company,31-0019,31-0019-22-01,22,G5,2075 PUBLIC ST,ELGIN,97827,45.5652,-117.9313
Byrnes Investment LLC,31-9522,31-9522-22-01,22,G5,8TH & ALBANY,ELGIN,97827,45.5656,-117.9172
XRAM LLC,10-0200,10-0200-22-01,22,G5,14940 STATE HIGHWAY 38,ELKTON,97436,43.6364,-123.5661
"Davis Body Shop, Inc.",32-0002,32-0002-27-01,27,G1,327 GOLF COURSE ROAD,ENTERPRISE,97828,45.4298,-117.2879
"Neil's Body Shop, Inc.",32-0004,32-0004-27-01,27,G1,506 NW 1ST ST,ENTERPRISE,97828-1009,45.4293,-117.279
"Stangel Industries, LLC",32-0005,32-0005-27-01,27,G1,401 NE 4TH ST,ENTERPRISE,97828-1506,45.4311,-117.2719
Henderson Fuel Company,32-0006,32-0006-22-01,22,G5,317 GOLF COURSE RD,ENTERPRISE,97828,45.4288,-117.2873
Enterprise Chevron LLC,32-0008,32-0008-22-01,22,G5,111 NW 1ST,ENTERPRISE,97828,45.4262,-117.2785
"Advanced Auto 4X4, Inc.",32-0013,32-0013-22-01,22,G5,103 E GRANT ST,ENTERPRISE,97828-1314,45.4238,-117.2778
Wallowa County,32-0017,32-0017-07-01,7,G3,67973 LEWISTON HWY,ENTERPRISE,97828,45.4821,-117.2746
Wallowa County Grain Growers,32-0023,32-0023-17-01,17,G1,107 FISH HATCHERY LN,ENTERPRISE,97828,45.4182,-117.2778
Wallowa County Grain Growers,32-0025,32-0025-22-01,22,G5,911 S RIVER ST,ENTERPRISE,97828-1677,45.42,-117.2772
"Hardchrome, Inc.",03-0013,03-0013-01-01,1,G3,1152 NW COMMERCE CT,Estacada,97023,45.3121,-122.3477
"Glacier Northwest, Inc",03-0034,03-0034-09-01,9,G1,29400 SE RIVER MILL ROAD,ESTACADA,97023,45.3028,-122.3553
"Estacada Rock Products, Inc.",12479.00,03-1934-08-01,Jan-00,G2,29400 RIVER MILL RD,ESTACADA,97023,45.3037,-122.3597
Leathers Enterprises Inc.,17227.00,03-9547-23-01,Jan-00,G4,605 W WADE ST,ESTACADA,97023-9717,45.2948,-122.3377
Petrocard Inc.,23071.00,03-9563-22-01,Jan-00,G5,512 SE CURRIN,ESTACADA,97023,45.2856,-122.333
"Toor Food Market, Inc.",44256.00,03-9601-23-01,Jan-00,G4,486 SE MAIN ST,ESTACADA,97023,45.2859,-122.3339
"APRO, LLC",44281.00,03-9626-23-01,Jan-00,G4,376 SE MAIN ST,ESTACADA,97023,45.287,-122.3333
"Marc Nelson Oil Products, Inc.",18688.00,03-9651-22-01,Jan-00,G5,453 SW 2ND ST,ESTACADA,97023,45.2906,-122.3372
Aaron D Vickery,26-0320,26-0320-BS-01,BS,BS,22024 NE SANDY BLVD,FAIRVIEW,97024,45.5421,-122.4366
AGC Heat Transfer Inc.,26-0394,26-0394-25-01,25,G2,3109 NE 230TH AVE,FAIRVIEW,97024,45.545,-122.4272
Cascade Corporation,26-3038,26-3038-ST-01,ST,ST,2201 NE 201ST AVE,FAIRVIEW,97024,45.5387,-122.4578
Jubitz Corporation,26-9575,26-9575-22-01,22,G5,20116 NE SANDY BLVD,FAIRVIEW,97024-9710,45.5447,-122.4554
"Jacksons Food Stores, Inc.",26-9580,26-9580-23-01,23,G4,20800 NE SANDY BLVD,FAIRVIEW,97024,45.5436,-122.4484
Reynolds School District #7,26-9677,26-9677-22-01,22,G5,20311 NE GLISAN ST,FAIRVIEW,97024-9627,45.5269,-122.4538
"Bhullar & Bhullar, LLC",26-9700,26-9700-23-01,23,G4,1605 NE 223RD AVE,FAIRVIEW,97024-2663,45.5346,-122.4341
"Westak of Oregon, Inc.",34-0097,34-0097-26-01,26,G1,3941 24TH AVE,FOREST GROVE,97116,45.5256,-123.0775
Oregon Collision Center,34-0114,34-0114-BS-01,BS,BS,1213 GALES CREEK RD,FOREST GROVE,97116-1123,45.53,-123.1273
Kramer's Auto Body & Car Stereo,34-0115,34-0115-27-01,27,G1,2632 19TH AVE,FOREST GROVE,97116-2758,45.5183,-123.1001
City of Hillsboro,34-0164,34-0164-18-01,18,G2,4475 SW FERN HILL RD,FOREST GROVE,97116-8504,45.4875,-123.0941
"Chaucer Foods, Inc.",34-0181,34-0181-BS-01,BS,BS,2238 YEW ST,FOREST GROVE,97116-2262,45.5229,-123.0733
Doherty Motor Company,34-0196,34-0196-BS-01,BS,BS,4223 PACIFIC AVENUE,FOREST GROVE,97116,45.5213,-123.0741
"Woodfold Mfg., Inc.",34-2584,34-2584-10-01,10,G3,1811 18TH ST,FOREST GROVE,97116-0346,45.5172,-123.1147
"TTM Technologies North America, LLC",34-2678,34-2678-SI-01,SI,SI,1521 POPLAR LN,FOREST GROVE,97116-2033,45.5134,-123.0814
"DMH, Inc.",34-2756,34-2756-TV-01,TV,TV,3802 & 3804 24TH AVE,FOREST GROVE,97116,45.5247,-123.0809
Shrijikrupa L.L.C.,34-9573,34-9573-23-01,23,G4,2710 19TH AVE,FOREST GROVE,97116,45.5183,-123.0993
Cain Petroleum Inc.,34-9624,34-9624-23-01,23,G4,2339 PACIFIC AVE,FOREST GROVE,97116,45.5198,-123.105
"Petrocard Systems, Inc.",34-9675,34-9675-22-01,22,G5,2711 PACIFIC AVE,FOREST GROVE,97116,45.5197,-123.099
"Fuiten-Rose & Mortuary Chapels, Inc.",34-9691,34-9691-12-01,12,G1,2308 PACIFIC AVE,FOREST GROVE,97116-2450,45.5196,-123.1065
"Fossil Fuel, Inc.",35-0001,35-0001-17-01,17,G1,750 6TH STREET,FOSSIL,97830,44.9968,-120.2128
Sheldon Oil Company,34-9520,34-9520-22-01,22,G5,55870 NW WILSON RIVER HWY,GALES CREEK,97117,45.6179,-123.2519
Northwest Hardwoods Inc,29-0011,29-0011-10-01,10,G3,202 S. 7TH ST.,GARIBALDI,97118,45.5573,-123.9153
Sheldon Oil Company,29-0083,29-0083-22-01,22,G5,701 GARIBALDI AVE.,GARIBALDI,97118,45.559,-123.9149
"Jackson & Son Distributors, Inc.",29-0096,29-0096-22-01,22,G5,511 GARIBALDI AVENUE,GARIBALDI,97118,45.559,-123.913
"Fox Lumber Sales, Inc.",34-0104,34-0104-10-01,10,G3,49800 SW SCOGGINS VALLEY RD,GASTON,97119,45.4673,-123.1881
Stimson Lumber Company,34-2066,34-2066-TV-01,TV,TV,49800 SW SCOGGINS VALLEY RD,GASTON,97119,45.4673,-123.1881
"Valley Fresh Foods, Inc.",24-0057,24-0057-12-01,12,G1,6335 ST. LOUIS RD.,GERVAIS,97026,45.1214,-122.9313
Knife River Corporation - Northwest,24-1283,24-1283-09-01,9,G1,741 MATHENY RD NE,GERVAIS,97026,45.0906,-123.034
Gilchrist Forest Products LLC,18-0005,18-0005-TV-01,TV,TV,1 SAWMILL RD,GILCHRIST,97737,43.4783,-121.691
Cain Petroleum Inc.,14305.00,03-9539-23-01,Jan-00,G4,830 E BERKELEY ST,GLADSTONE,97027,45.3829,-122.5814
Cain Petroleum Incorporated,21976.00,03-9560-23-01,Jan-00,G4,19200 SE MCLOUGHLIN BLVD,GLADSTONE,97027,45.3843,-122.6055
WOW Petroleum Inc,44277.00,03-9622-23-01,Jan-00,G4,810 E ARLINGTON ST,GLADSTONE,97027,45.3819,-122.5829
"Stein Oil Co., Inc.",44282.00,03-9627-23-01,Jan-00,G4,19805 MCLOUGHLIN BLVD,GLADSTONE,97027-2611,45.3774,-122.6011
Bright Cleaners,23437.00,03-9664-06-01,Jan-00,G6,480 PORTLAND AVE STE A,GLADSTONE,97027-2465,45.3801,-122.5945
Swanson Group Mfg. LLC,10-0045,10-0045-TV-01,TV,TV,303 MEHLWOOD LANE,GLENDALE,97442,42.7444,-123.4222
Thomas L. Schmeltz dba Cow Creek Station,10-0065,10-0065-22-01,22,G5,329 Junction Rd,Glendale,97442,42.7491,-123.3723
"Glide Store, Inc.",10-0227,10-0227-22-01,22,G5,117 N BROWN ST,GLIDE,97443-9754,43.2904,-123.0935
"AdvanTec Manufacturing USA, Inc.",08-0005,08-0005-27-01,27,G1,28336 HUNTER CREEK RD,GOLD BEACH,97444-9614,42.3783,-124.4189
"Freeman Rock, Inc.",08-0040,08-0040-BS-01,BS,BS,95437 JERRY'S FLAT RD.,GOLD BEACH,97444,42.4405,-124.3751
Everet L. Amos dba Ev's Hi-Tech Auto & Towing,08-0052,08-0052-22-01,22,G5,29719 ELLENSBURG AVE,GOLD BEACH,97444,42.4139,-124.4203
"D&J Texaco Mini Mart, Inc. dba D & J Shell",08-0053,08-0053-22-01,22,G5,29619 ELLENSBURG AVE,GOLD BEACH,97444,42.4113,-124.4205
Brian Wallace,08-0057,08-0057-22-01,22,G5,29359 ELLENSBURG AVE,GOLD BEACH,97444,42.4042,-124.4214
Ronald C. La Franchi dba Ron's Oil Company,08-0063,08-0063-22-01,22,G5,29597 ELLENSBURG AVE,GOLD BEACH,97444-8730,42.4107,-124.4205
SAC Enterprises LLC,15-0150,15-0150-22-01,22,G5,404 N 2ND AVE,GOLD HILL,97525,42.431,-123.0492
R.L.K. and Company,28185.00,03-9577-22-01,Jan-00,G5,90149 E GOVERNMENT CAMP LOOP,GOVERNMENT CAMP,97028,45.304,-121.7564
True Trail Corp.,44279.00,03-9624-22-01,Jan-00,G5,93770 E HWY 26,GOVERNMENT CAMP,97028,45.2506,-121.7106
WSCO Petroleum Corp.,27-8042,27-8042-22-01,22,G5,28600 SALMON RIVER HWY,GRAND RONDE,97347-9406,45.0584,-123.6142
Chapel Of The Valley Funeral Home Inc.,17-0003,17-0003-12-01,12,G1,2065 UPPER RIVER RD,GRANTS PASS,97526,42.4415,-123.3549
"Grants Pass Moulding, Inc.",17-0008,17-0008-10-01,10,G3,123 NE BEACON DR,GRANTS PASS,97526-3839,42.434,-123.3076
Asante Health System,17-0017,17-0017-11-01,11,G2,500 RAMSEY AVE.,GRANTS PASS,97526,42.421,-123.342
"Stephens Family Chapel, LLC",17-0028,17-0028-12-01,12,G1,1629 WILLIAMS HWY.,GRANTS PASS,97527,42.421,-123.334
"TP Grants Pass, LLC",17-0030,17-0030-TV-01,TV,TV,1090 SE M ST,GRANTS PASS,97526-3989,42.4319,-123.3087
Boersma Bros. LLC,17-0031,17-0031-16-01,16,G1,328 Tech Way,Grants Pass,97526,42.5053,-123.3675
"Metal Finishers, Inc.",17-0033,17-0033-26-01,26,G1,817 SW FOUNDRY ST,GRANTS PASS,97526-2423,42.4416,-123.3355
"NW Ventures Grants Pass, LLC dba Grants Pass Arco",17-0039,17-0039-22-01,22,G5,190 NE TERRY LN,GRANTS PASS,97526,42.4364,-123.3036
"Riverside Ready Mix, Inc.",17-0040,17-0040-09-01,9,G1,531 SE MILL ST,GRANTS PASS,97526-2340,42.4338,-123.3168
"MasterBrand Cabinets, Inc.",17-0046,17-0046-TV-01,TV,TV,550 SE MILL ST,GRANTS PASS,97526-2341,42.4325,-123.3186
Lil Pantry Xpress LLC - Merlin,17-0047,17-0047-22-01,22,G5,5000 MONUMENT DR,GRANTS PASS,97526-8503,42.4942,-123.365
Gary L. Peterson,17-0053,17-0053-09-01,9,G1,910 SE M ST,GRANTS PASS,97526-3248,42.4314,-123.3173
"Oak Knoll, Inc. dba Hull & Hull Crematory",17-0062,17-0062-12-01,12,G1,612 NW A ST,GRANTS PASS,97526,45.1333,-124.2719
Lil Pantry LLC - North Grants Pass,17-0064,17-0064-22-01,22,G5,2017 NW Vine Street,GRANTS PASS,97526,42.4624,-123.3236
"Rendata Industrial Park, L.L.C.",17-0076,17-0076-08-01,8,G2,700 MERLIN RD,GRANTS PASS,97526-9112,42.5072,-123.4008
R. W. Hays Co.,17-0077,17-0077-17-01,17,G1,529 NE 'F' ST,GRANTS PASS,97526,42.4381,-123.3204
U-Save Gas and Tackle LLC,17-0080,17-0080-22-01,22,G5,935 ROGUE RIVER HWY,GRANTS PASS,97527-5287,42.425,-123.2798
TRMC Retail LLC,17-0082,17-0082-22-01,22,G5,1618 Allen Creek Rd,Grants Pass,97527,42.4207,-123.3516
TRMC Retail LLC,17-0083,17-0083-22-01,22,G5,1094 NE E STREET,GRANTS PASS,97526,42.4373,-123.3105
WSCO Petroleum Corp.,17-0084,17-0084-22-01,22,G5,324 NE E ST,GRANTS PASS,97526-2164,42.4397,-123.3233
"Colvin Oil I, LLC",17-0090,17-0090-22-01,22,G5,730 REDWOOD HWY,GRANTS PASS,97527-5530,42.4122,-123.4126
"Colvin Oil I, LLC",17-0093,17-0093-22-01,22,G5,124 NE MORGAN LN,GRANTS PASS,97526,42.4624,-123.321
"Colvin Oil I, LLC dba Fireball Gas",17-0094,17-0094-22-01,22,G5,1044 NE 6TH STREET,GRANTS PASS,97526,42.4488,-123.3228
"Colvin Oil I, LLC",17-0095,17-0095-22-01,22,G5,1553 WILLIAMS HWY,GRANTS PASS,97527-5659,42.4213,-123.3338
"Colvin Oil I, LLC",17-0096,17-0096-22-01,22,G5,650 REDWOOD HWY,GRANTS PASS,97527-5823,42.4122,-123.4127
"Colvin Oil I, LLC",17-0097,17-0097-22-01,22,G5,1995 NE 6TH ST,GRANTS PASS,97526-3401,42.4619,-123.3223
BP Products North America Inc.,17-0098,17-0098-22-01,22,G5,785 SE 7TH ST,GRANTS PASS,97526,42.4339,-123.3283
Lil' Pantry Market & Deli LLC-Grants Pass,17-0099,17-0099-22-01,22,G5,979 ROGUE RIVER HIGHWAY,GRANTS PASS,97527-5287,42.425,-123.2798
"Fred Meyer Stores, Inc. dba FM Fuel Stop",17-0101,17-0101-22-01,22,G5,1101 GRANTS PASS PKWY,GRANTS PASS,97526-2333,42.4363,-123.2989
"Colvin Oil I, LLC",17-0103,17-0103-22-01,22,G5,2520 FOOTHILL BLVD,GRANTS PASS,97526-3603,42.438,-123.2858
"Colvin Oil I, LLC",17-0105,17-0105-22-01,22,G5,104 NE MORGAN LANE,GRANTS PASS,97526,42.4624,-123.3222
Truax Corporation,17-0106,17-0106-22-01,22,G5,1820 NE 7TH,GRANTS PASS,97526,42.4594,-123.3209
"Woodbury Energy Company, Inc.",17-0109,17-0109-22-01,22,G5,505 ROGUE RIVER HWY,GRANTS PASS,97527,42.4251,-123.28
"Fairgrounds Towing and Fuel, LLC",17-0116,17-0116-22-01,22,G5,780 UNION AVE,GRANTS PASS,97527-5548,42.4221,-123.3458
"Colvin Oil I, LLC",17-0117,17-0117-22-01,22,G5,6410 WILLIAMS HWY,GRANTS PASS,97527-8791,42.3479,-123.3325
Josephine County Public Works,17-0119,17-0119-22-01,22,G5,201 RIVER HEIGHTS WAY,GRANTS PASS,97527-5432,42.4265,-123.3409
"SemiConductor Components Industries, LLC",26-0027,26-0027-ST-01,ST,ST,23400 NE GLISAN ST,GRESHAM,97030,45.5282,-122.4227
Mutual Materials Company,26-0088,26-0088-SI-02,SI,SI,2300 SE HOGAN ROAD,GRESHAM,97080-9267,45.4812,-122.412
Knife River Corporation - Northwest,26-0129,26-0129-08-01,8,G2,1339 NW EASTWOOD AVE,GRESHAM,97030,45.5074,-122.4629
"APRO, LLC",26-0163,26-0163-23-01,23,G4,2281 NE 181ST AVE,GRESHAM,97230-6924,45.54,-122.4773
Multnomah County,26-0229,26-0229-18-01,18,G2,18480 SE STARK ST,GRESHAM,97223,45.5191,-122.4728
"Graphic Packaging International, Inc.",26-0238,26-0238-SI-01,SI,SI,18683 NE SANDY BLVD,GRESHAM,97230-6807,45.5456,-122.4704
Mackin's Auto Body,26-0305,26-0305-BS-01,BS,BS,2617 SE 182ND AVENUE,GRESHAM,97030,45.5035,-122.4761
"Precision Body & Paint of Gresham, Inc.",26-0309,26-0309-BS-01,BS,BS,2515 NW ELEVEN MILE AVENUE,GRESHAM,97030,45.515,-122.4589
"Elite Collision, LLC",26-0321,26-0321-BS-01,BS,BS,1925 E POWELL BLVD,GRESHAM,97080-8047,45.4973,-122.4128
"Superior Auto Body, Inc.",26-0332,26-0332-BS-01,BS,BS,1543 SE ORIENT DR,GRESHAM,97080-7227,45.4855,-122.3966
Caliber Holdings Corporation,26-0343,26-0343-BS-01,BS,BS,2132 SE 3RD ST,GRESHAM,97080-8067,45.496,-122.4107
"Gerber Collision (Oregon), Inc.",26-0358,26-0358-BS-01,BS,BS,1661 E POWELL BLVD,GRESHAM,97030,45.498,-122.4155
Gresham Oil LLC,26-0360,26-0360-23-01,23,G4,28210 SE ORIENT DR,GRESHAM,97080,45.4714,-122.3722
"PFS Crematory, Gresham",26-3131,26-3131-12-01,12,G1,520 W BLVD POWELL,GRESHAM,97030,45.4969,-122.4353
City Of Gresham,26-3228,26-3228-SI-01,SI,SI,20015 NE SANDY BLVD,GRESHAM,97030,45.5454,-122.4587
Microchip Technology Incorporated,26-3240,26-3240-ST-01,ST,ST,21015 SE STARK ST,GRESHAM,97030-2015,45.5206,-122.4474
"Fred Meyer Stores, Inc.",26-9569,26-9569-23-01,23,G4,2497 SE BURNSIDE RD,GRESHAM,97080-1246,45.495,-122.4069
"Safeway, Inc.",26-9576,26-9576-23-01,23,G4,1103 SW HIGHLAND DR.,GRESHAM,97080,45.485,-122.4714
Leathers Enterprises Inc.,26-9581,26-9581-23-01,23,G4,1467 SE ORIENT DR,GRESHAM,97080-7227,45.4864,-122.3976
Cain Petroleum Inc.,26-9582,26-9582-23-01,23,G4,21188 STARK STREET,GRESHAM,97030,45.5191,-122.4451
BP Products North America Inc.,26-9593,26-9593-23-01,23,G4,24235 SE STARK ST STE A,GRESHAM,97030-8312,45.5194,-122.4119
"Plaid Pantries, Inc.",26-9627,26-9627-23-01,23,G4,1055 NE KANE DR,GRESHAM,97030-5935,45.505,-122.3989
"Space Age Fuel, Inc.",26-9634,26-9634-23-01,23,G4,22 NW DIVISION ST,GRESHAM,97030-5518,45.5044,-122.4313
Cain Petroleum Incorporated,26-9659,26-9659-23-01,23,G4,30 W POWELL BLVD,GRESHAM,97030,45.4976,-122.4296
Leathers Enterprises Inc.,26-9673,26-9673-23-01,23,G4,22300 SE STARK ST,GRESHAM,97030-2654,45.5189,-122.4323
Vision International Petroleum Inc,26-9683,26-9683-23-01,23,G4,50 NE BURNSIDE Road,GRESHAM,97030,45.5087,-122.4306
BP Products North America Inc.,26-9708,26-9708-23-01,23,G4,57 W POWELL BLVD SUITE A,GRESHAM,97030-7056,45.4978,-122.4318
"Marc Nelson Oil Products, Inc.",26-9726,26-9726-22-01,22,G5,150 NE HOGAN RD,GRESHAM,97030,45.4987,-122.4139
Cain Petroleum Incorporated,26-9745,26-9745-23-01,23,G4,1820 NE DIVISION ST,GRESHAM,97030,45.5048,-122.4136
Prestige Oil LLC,26-9755,26-9755-23-01,23,G4,985 NE BURNSIDE RD,GRESHAM,97030-3925,45.5067,-122.4212
"MDC Coast 6, LLC",26-9759,26-9759-23-01,23,G4,18222 SE DIVISION ST,GRESHAM,97030-5149,45.5046,-122.4753
Cameo Cleaners,26-9798,26-9798-06-01,6,G6,732 NE 181ST AVE,GRESHAM,97230-6706,45.5287,-122.477
"Space Age Fuel, Inc.",26-9823,26-9823-23-01,23,G4,2515 E POWELL BLVD,GRESHAM,97080-1406,45.494,-122.4073
Speedy Bright Dry Cleaners,26-9826,26-9826-06-01,6,G6,578 W POWELL BLVD,GRESHAM,97030-7047,45.4971,-122.4373
Lee's One Hour Dry Cleaners,26-9835,26-9835-06-01,6,G6,60 NW DIVISION ST,GRESHAM,97030,45.5045,-122.4302
Tami's Pine Valley Funeral Home,01-0017,01-0017-BS-01,BS,BS,115 N MAIN STREET,HALFWAY,97834,44.8776,-117.1094
Scottys Hells Canyon Outdoor Supply,01-0053,01-0053-22-01,22,G5,53969 HWY. 86,HALFWAY,97834,44.8772,-117.0862
"Richland Feed & Seed, Inc.",01-0058,01-0058-22-01,22,G5,231 S MAIN STREET,HALFWAY,97834,44.8797,-117.111
Q Pioneer LLC,22-0049,22-0049-22-01,22,G5,32980 HIGHWAY 228,HALSEY,97348-9715,44.3884,-123.0653
"Cascade Pacific Pulp, LLC",22-3501,22-3501-TV-01,TV,TV,30480 AMERICAN DR,HALSEY,97348-9750,44.3827,-123.1605
"Smith Seed Services, L.L.C.",22-3525,22-3525-15-01,15,G1,26890 POWERLINE RD,HALSEY,97348,44.3738,-123.1291
Georgia-Pacific Consumer Operations LLC,22-6034,22-6034-ST-01,ST,ST,30470 AMERICAN DR,HALSEY,97348-9750,44.4034,-123.1943
"CECO, Inc.",22-8073,22-8073-22-01,22,G5,211 2ND STREET,HALSEY,97348,44.3875,-123.1098
PBK LLC,22-8074,22-8074-22-01,22,G5,33180 HIGHWAY 228,HALSEY,97348,44.3807,-123.0608
"Fred Meyer Stores, Inc.",03-0112,03-0112-23-01,23,G4,13163 SE 172ND AVE,HAPPY VALLEY,97086,45.427,-122.483
Gethsemani Crematory,03-0118,03-0118-12-02,12,G1,11666 SE Stevens Rd,Happy Valley,97086,45.4385,-122.5639
"Merritt #1, Inc.",13940.00,03-9538-23-01,Jan-00,G4,9010 SE 82ND AVE,HAPPY VALLEY,97086-3646,45.4579,-122.5789
"Fred Meyer Stores, Inc.",15401.00,03-9542-23-01,Jan-00,G4,8955 SE 82ND AVE,HAPPY VALLEY,97086-3603,45.4513,-122.5791
WSCO Petroleum Corp.,44258.00,03-9603-23-01,Jan-00,G4,12479 SE 82ND AVE,HAPPY VALLEY,97086-7720,45.4325,-122.5792
"Jacksons Food Stores, Inc.",44260.00,03-9605-23-01,Jan-00,G4,10725 SE 82ND AVE,HAPPY VALLEY,97086-7601,45.4456,-122.579
Cain Petroleum Incorporated,26-9607,26-9607-23-01,23,G4,9694 SE 82ND AVE,HAPPY VALLEY,97086-3727,45.4526,-122.5791
"CHS Inc., A Corporation of Minnesota",22-0008,22-0008-14-01,14,G1,815 S 2ND ST,HARRISBURG,97446-9662,44.2675,-123.1723
"Smucker Pelleting, LLC",22-0024,22-0024-14-01,14,G1,24023 POWERLINE RD,HARRISBURG,97446-9723,44.2958,-123.1285
Isovolta Inc.,22-0042,22-0042-SI-01,SI,SI,495 Territorial St,Harrisburg,97446-9608,44.275,-123.167
Magnum Service Inc. dba Harrisburg Station,22-0053,22-0053-22-01,22,G5,309 N 3RD ST,HARRISBURG,97446-9632,44.2739,-123.1709
"Hayworth Seed Warehouse, Inc.",22-4017,22-4017-15-01,15,G1,23460 HWY 99E,HARRISBURG,97446,44.2666,-123.1666
"Morse Bros., Inc.",22-4033,22-4033-09-01,9,G1,HWY 99E,HARRISBURG,97446,44.3666,-123.1747
"Eagle Veneer, Inc.",22-6031,22-6031-10-01,10,G3,450 LA SALLE ST,HARRISBURG,97446,44.2677,-123.1633
"Forest River, Inc.",22-8043,22-8043-SI-01,SI,SI,30725 DIAMOND HILL DR,HARRISBURG,97446-9782,44.284,-123.1473
"Diamond RB, LLC",22-8052,22-8052-BS-01,BS,BS,32351 DIAMOND HILL DR,HARRISBURG,97446-9738,44.2799,-123.0809
"Woodbury Energy Company, Inc.",22-8059,22-8059-22-01,22,G5,560 LASALLE ST,HARRISBURG,97446,44.268,-123.168
Miller Manufacturing,25-0009,25-0009-29-01,29,G4,54182 HWY. 74,HEPPNER,97836,45.3781,-119.5856
Devin Oil Co. Inc.,25-0049,25-0049-17-01,17,G1,733 W RIVERSIDE AVE,HEPPNER,97836,45.3653,-119.5636
Devin Oil Co. Inc.,25-0054,25-0054-22-01,22,G5,329 N. MAIN,HEPPNER,97836,45.3559,-119.5541
"CMH Manufacturing West, Inc.",30-0008,30-0008-SI-01,SI,SI,400 W ELM AVE,HERMISTON,97838-1021,45.8511,-119.2944
"St. Hilaire Brothers Hermiston Farm, LLC",30-0018,30-0018-SI-01,SI,SI,84186 HIGHWAY 37,HERMISTON,97838,45.9082,-119.1002
HS Petroleum Inc,30-0049,30-0049-22-01,22,G5,2398 N 1ST ST,HERMISTON,97838-1182,45.8632,-119.2909
"Amazon Data Services, Inc.",30-0054,30-0054-ST-01,ST,ST,28803 LIVESTOCK RD.,HERMISTON,97838,45.7995,-119.3648
"Amazon Data Services, Inc.",30-0071,30-0071-ST-01,ST,ST,81712 LIND RD.,HERMISTON,97838,45.9005,-119.3085
"Lamb Weston, Inc.",30-0075,30-0075-ST-01,ST,ST,78153 WESTLAND RD,HERMISTON,97838,45.8044,-119.3688
"Umatilla Ready Mix, Inc.",30-0088,30-0088-09-01,9,G1,460 W ELM,HERMISTON,97838,45.8833,-119.3033
"PGG/HSC Feed Company, L.L.C.",30-0105,30-0105-14-01,14,G1,300 W FEEDVILLE ROAD,HERMISTON,97838,45.8063,-119.291
"Hermiston Generating Company, L.P.",30-0113,30-0113-TV-01,TV,TV,78145 WESTLAND RD.,HERMISTON,97838,45.7949,-119.3748
Hermiston Power LLC,30-0118,30-0118-TV-01,TV,TV,78910 SIMPLOT ROAD,HERMISTON,97838,45.7916,-119.3122
Burns Mortuary Of Hermiston,30-0120,30-0120-12-01,12,G1,685 HERMISTON AVENUE,HERMISTON,97838,45.8409,-119.302
"Pioneer Hi-Bred International, Inc.",30-9503,30-9503-SI-01,SI,SI,2212 SE 9TH ST.,HERMISTON,97838,45.8155,-119.2769
"Mid Columbia Producers, Inc.",30-9509,30-9509-17-01,17,G1,300 W FEEDVILLE RD,HERMISTON,97838-9573,45.8316,-119.3208
"Heller & Sons Distributing, Inc.",30-9511,30-9511-17-01,17,G1,30 W CATHERINE AVE.,HERMISTON,97838,45.8444,-119.291
Anant Pacific LLC,30-9516,30-9516-22-01,22,G5,1580 W HIGHLAND DRIVE,HERMISTON,97838,45.8359,-119.3167
Phipps Chevron,30-9518,30-9518-22-01,22,G5,200 N FIRST STREET,HERMISTON,97838,45.8419,-119.29
Hattenhauer Distributing Co.,30-9527,30-9527-22-01,22,G5,710 HERMISTON AVE W,HERMISTON,97838,45.8408,-119.3011
"Leathers Enterprises, Incorporated",30-9529,30-9529-22-01,22,G5,1655 N 1ST ST,HERMISTON,97838,45.8536,-119.2906
"Coleman Oil Company, LLC",30-9541,30-9541-22-01,22,G5,55 W ELM,HERMISTON,97838,45.849,-119.2914
"Coleman Oil Company, LLC",30-9542,30-9542-22-01,22,G5,78133 Highway 207,HERMISTON,97838,45.8043,-119.3195
Devin Oil Co. Inc.,30-9543,30-9543-22-01,22,G5,1430 N 1ST,HERMISTON,97838,45.8514,-119.2898
Devin Oil Co. Inc.,30-9544,30-9544-22-01,22,G5,32553 E PUNKIN CENTER RD,HERMISTON,97838,45.8638,-119.2261
"Space Age Fuel, Inc.",30-9559,30-9559-22-01,22,G5,77522 S HWY. 207,HERMISTON,97875,45.7827,-119.3246
"MO.MM, LLC",30-9560,30-9560-22-02,22,G5,28810 STAFFORD HANSEL RD,HERMISTON,97838-7150,45.7951,-119.3977
"MO.MM, LLC",30-9561,30-9561-22-02,22,G5,1295 NW 11TH ST,HERMISTON,97838-6682,45.8441,-119.311
"MO.MM, LLC",30-9562,30-9562-22-02,22,G5,1050 S HIGHWAY 395,HERMISTON,97383,45.8326,-119.2845
"Peterkort Roses, L.L.C.",34-0001,34-0001-11-01,11,G2,11815 SW HILLSBORO HWY,HILLSBORO,97123,45.4704,-122.9917
Hillsboro Landfill Inc.,34-0004,34-0004-ST-01,ST,ST,3205 SE MINTER BRIDGE ROAD,HILLSBORO,97123,45.493,-122.97
"SunPower Manufacturing Oregon, LLC",34-0010,34-0010-SI-01,SI,SI,4050 NE Evergreen Rd,Hillsboro,97124-1839,45.55,-122.9727
AGC Electronics America,34-0016,34-0016-SI-01,SI,SI,4375 NW 235TH AVE,HILLSBORO,97124-5852,45.5509,-122.9184
Dynic USA Corp.,34-0017,34-0017-SI-01,SI,SI,4750 NE DAWSON CREEK DR,HILLSBORO,97124,45.5467,-122.9327
Tata Communications (US) Inc.,34-0022,34-0022-18-01,18,G2,21101 NW EVERGREEN PKWY,HILLSBORO,97124,45.5469,-122.8937
Qorvo US,34-0055,34-0055-ST-01,ST,ST,2300 NE BROOKWOOD PKWY,HILLSBORO,97124,45.5413,-122.9374
International Paper,34-0058,34-0058-SI-01,SI,SI,5582 NE Huffman St,Hillsboro,97124,45.557,-122.9224
Bretthauer Oil Company,34-0065,34-0065-17-01,17,G1,453 SW WASHINGTON ST,HILLSBORO,97123-3945,45.5215,-122.9949
"CoorsTek, Inc.",34-0067,34-0067-ST-01,ST,ST,555 NE 53RD,HILLSBORO,97124,45.5264,-122.9293
West Coast Coffee Company,34-0079,34-0079-16-01,16,G1,21400 NW Mauzey Rd,Hillsboro,97124,45.5669,-122.8981
Qorvo US,34-0080,34-0080-18-01,18,G2,2300 NE BROOKWOOD PKWY,HILLSBORO,97124,45.5413,-122.9374
Flexential Colorado Corp.,34-0083,34-0083-18-01,18,G2,3935 NE Aloclek Ct,Hillsboro,97124,45.5227,-122.9904
Clean Water Services,34-0096,34-0096-18-01,18,G2,SW CORNER OF NE CORNELL & BROOKWOOD PKWY,HILLSBORO,97124,45.5323,-122.9382
Evers Auto Body and Painting,34-0112,34-0112-27-01,27,G1,155 SW FREEMAN AVE,HILLSBORO,97123-3801,45.5222,-122.998
Ammcon Corp.,34-0113,34-0113-25-01,25,G1,21450 NW WEST UNION RD,HILLSBORO,97124-8523,45.5706,-122.8985
"Aero Air, LLC",34-0117,34-0117-27-01,27,G1,2050 NE 25TH AVE,HILLSBORO,97124-5964,45.5397,-122.9571
Wilson Sporting Goods Co.,34-0122,34-0122-BS-01,BS,BS,6850 NE CAMPUS WAY,HILLSBORO,97124,45.5314,-122.9147
Kaiser Foundation Health Plan of the Northwest dba Kaiser Permanente,34-0133,34-0133-18-01,18,G2,10055 NE Venetian Drive,Hillsboro,97124,45.5385,-122.8794
City of Hillsboro,34-0142,34-0142-18-01,18,G2,30575 NW EVERGREEN RD,HILLSBORO,97124-1855,45.5498,-122.9919
"Davis Tool, Inc.",34-0144,34-0144-SI-01,SI,SI,3740 NE Aloclek Drive,Hillsboro,97124,45.5416,-122.8934
West Union Sun Foods LLC,34-0147,34-0147-23-01,23,G4,6301 NW CORNELIUS PASS RD,HILLSBORO,97112,45.5656,-122.8945
"Linde Inc., A Corporation of Delaware",34-0150,34-0150-11-01,11,G2,4655 NE 59th Ave,Hillsboro,97124-5879,45.5541,-122.9194
Quantum Global Technologies LLC,34-0152,34-0152-SI-01,SI,SI,8055 NE Jacobson St,Hillsboro,97124,45.5648,-122.8986
"Stack Infrastructure, Inc.",34-0157,34-0157-SI-01,SI,SI,3145 NE BROOKWOOD PKWY,HILLSBORO,97124-5303,45.5471,-122.9287
Washington County,34-0175,34-0175-18-01,18,G2,215 SW ADAMS AVE,HILLSBORO,97123-3874,45.5212,-122.9914
"Reser's Fine Foods, Inc.",34-0176,34-0176-BS-01,BS,BS,6999 NW CENTURY BLVD,HILLSBORO,97124-8528,45.5645,-122.9183
"Stack Infrastructure, Inc.",34-0183,34-0183-SI-01,SI,SI,8135 NE Evergreen Pkwy,Hillsboro,97124,45.5509,-122.9207
Beaver Ventures LLC,34-0186,34-0186-SI-01,SI,SI,6675 NE 62ND AVE,HILLSBORO,97123,45.6781,-122.9183
Oregon Health and Science University,34-0187,34-0187-11-01,11,G2,505 NW 185TH AVENUE,HILLSBORO,97006,45.4772,-122.8094
Oregon Health and Science University,34-0189,34-0189-18-01,18,G2,505 NW 185TH AVENUE,HILLSBORO,97006,45.5235,-122.8674
Mackenzies Motor Co.,34-0192,34-0192-BS-01,BS,BS,205 SE 3RD AVENUE,HILLSBORO,97123,45.521,-122.9865
Colorwheels Northwest Corporation,34-0201,34-0201-BS-01,BS,BS,2704 SE 39TH LOOP STE 105,HILLSBORO,97123,45.4984,-122.9438
"Bruce Chevrolet, Inc.",34-0202,34-0202-BS-01,BS,BS,1084 SW OAK STREET,HILLSBORO,97123,45.5181,-123.0019
"Scottie's Auto Body, Inc.",34-0203,34-0203-BS-01,BS,BS,503 SW BASELINE STREET,HILLSBORO,97123,45.5206,-122.9961
Caliber Holdings Corporation,34-0213,34-0213-BS-01,BS,BS,960 SW OAK ST,HILLSBORO,97123-3856,45.5189,-123.0005
Reedville Body & Paint Co.,34-0220,34-0220-BS-01,BS,BS,1679 NW CORNELIUS PASS RD,HILLSBORO,97124,45.5302,-122.8997
"United Parcel Service, Inc.",34-0221,34-0221-22-01,22,G5,7230 NE CENTURY BLVD,HILLSBORO,97124,45.5357,-122.9118
"QTS Investment Properties Hillsboro, LLC",34-0222,34-0222-ST-01,ST,ST,4951 NE Huffman St,Hillsboro,97124,45.5571,-122.9272
ColorAll LLC,34-0231,34-0231-BS-01,BS,BS,1171 SE TV HWY,HILLSBORO,97123,45.5227,-122.9904
"7-Eleven, Inc.",34-0232,34-0232-23-01,23,G4,5456 NE BROOKWOOD PKWY,HILLSBORO,97124,45.5465,-122.9313
"Central Auto Body, LLC",34-0234,34-0234-BS-01,BS,BS,5757 NE CORNELIUS PASS RD,HILLSBORO,97124,45.5609,-122.8979
"NTT Global Data Centers HI, LLC",34-0235,34-0235-ST-01,ST,ST,4050 NE Evergreen Road,Hillsboro,97124,45.55,-122.9727
KoMiCo Hillsboro LLC,34-0238,34-0238-SI-01,SI,SI,6231 NE Croeni Ave,Hillsboro,97124,45.5649,-122.9056
Flexential Colorado Corp,34-0241,34-0241-SI-01,SI,SI,5737 NE Huffman Street,Hillsboro,97124,45.557,-122.9227
"OSRAM Opto Semiconductor, Inc.",34-0243,34-0243-SI-01,SI,SI,9025 NE VON NEUMANN DR,HILLSBORO,97006,45.5312,-122.8862
Jewett-Cameron Seed Company,34-2510,34-2510-15-01,15,G1,31345 NW BEACH RD,HILLSBORO,97124,45.5886,-122.9931
Permapost Products Co.,34-2580,34-2580-SI-01,SI,SI,4205 SE Witch Hazel Road,HILLSBORO,97123,45.5006,-122.9408
Longbottom Coffee & Tea Inc.,34-2750,34-2750-16-01,16,G1,4893 NW 235th St Ste 100,HILLSBORO,97124,45.5551,-122.9183
Clean Water Services,34-2753,34-2753-ST-01,ST,ST,3235 SW RIVER ROAD,HILLSBORO,97123,45.4977,-122.9492
"Glacier Northwest, Inc.",34-2769,34-2769-09-01,9,G1,21480 NW AMBERWOOD DR,HILLSBORO,97124-7080,45.5375,-122.8969
"Tokyo Ohka Kogyo America, Inc.",34-2790,34-2790-SI-01,SI,SI,4600 NW Brookwood Pkwy,HILLSBORO,97124,45.5519,-122.9244
Jireh Semiconductor Incorporated,34-2813,34-2813-ST-01,ST,ST,3131 NE BROOKWOOD PKWY,HILLSBORO,97124,45.5465,-122.9306
"Genentech, Inc.",34-9507,34-9507-SI-01,SI,SI,4625 NW Brookwood Parkway,HILLSBORO,97124-9332,45.5572,-122.9262
"NTT Global Data Centers HI, LLC",34-9508,34-9508-18-01,18,G2,4050 NE Evergreen Road,Hillsboro,97124,45.55,-122.9727
"New Albertsons, Inc.",34-9519,34-9519-23-01,23,G4,888 NE 25TH AVE,HILLSBORO,97124-5975,45.5311,-122.957
Twin Oaks Airpark Inc.,34-9527,34-9527-22-01,22,G5,12405 SW RIVER RD,HILLSBORO,97123-9314,45.4337,-122.9421
"Angel Cleaners, LLC.",34-9534,34-9534-06-01,6,G6,1195 NW 185TH AVE,HILLSBORO,97006-1949,45.5287,-122.8675
Bretthauer Oil Company,34-9549,34-9549-23-01,23,G4,21180 NW AMBERWOOD DR,HILLSBORO,97124-6692,45.5372,-122.8947
Costco Wholesale Corporation,34-9553,34-9553-23-01,23,G4,1259 NE 48TH AVE,HILLSBORO,97124,45.5341,-122.9362
Space Age Fuel Inc,34-9556,34-9556-23-01,23,G4,18544 NW EIDER CT,HILLSBORO,97124,45.5308,-122.868
"Jacksons Food Stores, Inc.",34-9562,34-9562-23-01,23,G4,6950 NE CORNELL RD,HILLSBORO,97124-9076,45.5339,-122.9209
"Jacksons Food Stores, Inc.",34-9568,34-9568-23-01,23,G4,7400 SW BASELINE RD,HILLSBORO,97123-6421,45.5167,-122.9049
Elite Financial Association LLC,34-9569,34-9569-23-01,23,G4,21755 NW IMBRIE DRIVE,HILLSBORO,97124,45.524,-122.9188
Cain Petroleum Incorporated,34-9576,34-9576-23-01,23,G4,7551 SW Tualatin Valley Hwy,Hillsboro,97123,45.52,-123.02
Chevron Products Co,34-9585,34-9585-23-01,23,G4,2281 NW 185TH AVE,HILLSBORO,97124-7075,45.5365,-122.8677
"Progress One, LLC",34-9599,34-9599-23-01,23,G4,373 SE BASELINE ROAD,HILLSBORO,97123,45.5204,-122.9834
"MKT Hillsboro II, LLC",34-9604,34-9604-23-01,23,G4,1729 NE CORNELL RD,HILLSBORO,97123,45.5312,-122.963
"APRO, LLC",34-9608,34-9608-23-01,23,G4,5063 SE TUALATIN VALLEY HWY,HILLSBORO,97123,45.5007,-122.9305
BP Products North America Inc.,34-9621,34-9621-23-01,23,G4,9560 NW GLENCOE RD,HILLSBORO,97124,45.5892,-122.9971
Cain Petroleum Inc.,34-9629,34-9629-23-01,23,G4,833 SE BASELINE ST,HILLSBORO,97123-4205,45.5202,-122.9766
"Jacksons Food Stores, Inc.",34-9639,34-9639-23-01,23,G4,1259 SE TUALATIN VALLEY HWY,HILLSBORO,97123,45.5105,-122.9694
JCS Gas N Grub,34-9647,34-9647-23-01,23,G4,106 SW OAK ST,HILLSBORO,97123,45.5186,-122.9902
HS and HA LLC,34-9670,34-9670-22-01,22,G5,275 SE BASELINE ST,HILLSBORO,97123-4007,45.5201,-122.9925
Regal Cleaners,34-9689,34-9689-06-01,6,G6,"2020 NE CORNELL RD, STE G",HILLSBORO,97124-2772,45.5307,-122.9614
"Fred Meyer Stores, Inc.",34-9694,34-9694-23-01,23,G4,6495 SE TUALATIN VALLEY HWY,HILLSBORO,97123-7482,45.4999,-122.9262
"Fred Meyer Stores, Inc.",34-9701,34-9701-23-01,23,G4,7390 NE Imbrie Dr,Hillsboro,97124,45.5499,-122.904
Ebar Oil Company,13-0024,13-0024-22-01,22,G5,604 N HWY 20,HINES,97738,43.5734,-119.0756
3E LLC,13-0025,13-0025-22-01,22,G5,103 HWY 20 S,HINES,97738,43.5214,-119.0957
"Leathers Enterprises, Incorporated",13-0028,13-0028-22-01,22,G5,1202 OREGON AVE,HINES,97720,43.5763,-119.0722
"Ed Staub and Sons Petroleum, Inc.",13-0030,13-0030-22-01,22,G5,531 HWY. 20 N,HINES,97738,43.5531,-119.0841
"Ed Staub and Sons Petroleum, Inc.",13-0031,13-0031-22-01,22,G5,740 HWY. 20 S,HINES,97738,43.5472,-119.0847
Biodynamics LLC,13-0032,13-0032-ST-01,ST,ST,551 HWY 20 SOUTH,HINES,97738,43.5547,-119.0833
"Mt. Hood Forest Products, LLC",14-0006,14-0006-10-01,10,G3,4865 HWY 35,HOOD RIVER,97031,45.5854,-121.5479
"Devin Hobbs, Inc.",14-0011,14-0011-22-01,22,G5,1691 12TH ST,HOOD RIVER,97031,45.6969,-121.5229
"Windy Corner, Inc.",14-0012,14-0012-22-01,22,G5,1650 TUCKER RD,HOOD RIVER,97031-9681,45.6786,-121.5443
"El Rosal, Inc.",14-0014,14-0014-22-01,22,G5,2375 HWY 35,HOOD RIVER,97031,45.682,-121.5064
Interstate Concrete and Asphalt Company,14-0015,14-0015-09-01,9,G1,2630 OLD COLUMBIA RIVER DR,HOOD RIVER,97031-9523,45.7,-121.4969
Hood River Supply Association,14-9532,14-9532-17-01,17,G1,1995 12TH ST,HOOD RIVER,97031-9535,45.6939,-121.5238
Anderson's Tribute Center,14-9533,14-9533-BS-01,BS,BS,1401 BELMONT AVE,HOOD RIVER,97031-1649,45.6995,-121.5258
"CECO, Inc.",14-9534,14-9534-17-01,17,G1,2660 DOCK RD,HOOD RIVER,97031-1183,45.7115,-121.5227
"Columbia Room, Inc.",14-9536,14-9536-22-01,22,G5,949 E MARINA WAY,HOOD RIVER,97031,45.7114,-121.4989
"Columbia Room, Inc.",14-9537,14-9537-22-01,22,G5,1046 E MARINA WAY,HOOD RIVER,97031-2378,45.7115,-121.5006
Hattenhauer Distributing Co.,14-9539,14-9539-22-01,22,G5,1413 12TH ST,HOOD RIVER,97031-1607,45.7001,-121.5237
Hattenhauer Distributing Co.,14-9540,14-9540-22-01,22,G5,2385 HWY 35,HOOD RIVER,97031,45.6533,-121.5133
Hattenhauer Distributing Co.,14-9541,14-9541-22-01,22,G5,101 N 1ST STREET,HOOD RIVER,97031,45.7117,-121.5116
Hattenhauer Distributing Co.,14-9542,14-9542-22-01,22,G5,3450 CASCADE DR,HOOD RIVER,97031,45.7107,-121.5475
WSCO Petroleum Corp.,14-9544,14-9544-22-01,22,G5,214 FRONT ST,HOOD RIVER,97031,45.7081,-121.5102
"CECO, Inc.",14-9545,14-9545-22-01,22,G5,2555 CASCADE AVE,HOOD RIVER,97031,45.71,-121.5371
Nobi's,14-9548,14-9548-22-01,22,G5,1380 TUCKER RD,HOOD RIVER,97031,45.6791,-121.5293
"Wolf Steel Foundry, Inc.",03-0016,03-0016-SI-01,SI,SI,6160 S WHISKEY HILL RD,HUBBARD,97032-9408,45.1743,-122.7393
Ulven Forging Inc.,03-0083,03-0083-29-01,29,G4,6160 S WHISKEY HILL RD,HUBBARD,97032-9408,45.1743,-122.7393
Robert S. Kim dba Hubbard Chevron,24-0121,24-0121-22-01,22,G5,3574 PACIFIC HWY 99E,HUBBARD,97032,45.1809,-122.8048
Khan Oil LLC,24-9227,24-9227-22-01,22,G5,4515 PACIFIC HWY,HUBBARD,97032-9734,45.187,-122.7995
"McCain Enterprises, Inc.",24-9234,24-9234-22-01,22,G5,3325 PACIFIC HWY,HUBBARD,97032,45.1792,-122.8069
"Marc Nelson Oil Products, Inc.",24-9248,24-9248-22-01,22,G5,1477 HIGHWAY 22,IDANHA,97350,44.6856,-121.9638
Marquis Corp. dba Marquis Spas,27-0001,27-0001-TV-01,TV,TV,596 HOFFMAN RD,INDEPENDENCE,97351-9601,44.8614,-123.1918
"acpi Wood Products, LLC",27-0005,27-0005-TV-01,TV,TV,625 HOFFMAN RD,INDEPENDENCE,97351-9805,44.8638,-123.2063
S.K. Bal LLC dba Circle S Market,27-0021,27-0021-22-01,22,G5,1082 MONMOUTH ST,INDEPENDENCE,97351,44.8513,-123.2001
"Forest River, Inc.",27-8034,27-8034-ST-01,ST,ST,900 WALNUT ST,INDEPENDENCE,97351-2142,44.8609,-123.1884
JNK Incorporated dba Jimmyz Independence Gas & Mini Mart,27-8039,27-8039-22-01,22,G5,178 MONMOUTH ST,INDEPENDENCE,97351,44.8513,-123.1855
Truax Corporation,27-8048,27-8048-22-01,22,G5,1410 MONMOUTH BLVD,INDEPENDENCE,97351,44.8514,-123.2067
Gas Transmission Northwest LLC,25-0026,25-0026-TV-01,TV,TV,GOOSEBERRY RD 4 MI. SW OF IONE,IONE,97843,45.4855,-119.85
Devin Oil Co. Inc.,25-0055,25-0055-22-01,22,G5,300 SE HIGHWAY 730,IRRIGON,97844-7038,45.8945,-119.4976
Hampton's Incorporated,31-0001,31-0001-07-01,7,G3,10506 N. MCALISTER ROAD,ISLAND CITY,97850,45.3417,-118.0438
"Colvin Oil I, LLC dba Jacksonville Chevron",15-9590,15-9590-22-01,22,G5,945 N 5TH ST,JACKSONVILLE,97530,42.3203,-122.9588
Truax Corporation,24-9307,24-9307-22-01,22,G5,187 N 2ND ST,JEFFERSON,97352-9702,44.7183,-123.0102
Ochoco Lumber Company,12-0032,12-0032-ST-01,ST,ST,60339 W HIGHWAY 26 ,JOHN DAY,97845,44.4217,-118.9936
John Day River Veterinary Center,12-0038,12-0038-BS-01,BS,BS,59989 HWY. 26,JOHN DAY,97845,44.4172,-118.9564
"Triangle Oil, Inc.",12-0039,12-0039-17-01,17,G1,760 S CANYON BLVD.,JOHN DAY,97845,44.4077,-118.9495
"Ed Staub and Sons Petroleum, Inc.",12-0044,12-0044-22-01,22,G5,801 W HWY 26,JOHN DAY,97845,44.4205,-118.9761
"Leathers Enterprises, Incorporated",12-0050,12-0050-22-01,22,G5,603 W MAIN,JOHN DAY,97845,44.4196,-118.9601
"Basque Station, Inc.",23-0058,23-0058-22-01,22,G5,801 Main St,Jordan Valley,97910,42.9743,-117.0561
"Paul's Chevron Service, LLC",32-0027,32-0027-22-01,22,G5,300 N MAIN,JOSEPH,97846,45.3545,-117.2294
"Merritt #1, Inc.",24-0123,24-0123-22-01,22,G5,5195 RIVER RD N,KEIZER,97303,44.9999,-123.0266
City of Salem,24-0136,24-0136-SI-01,SI,SI,5915 WINDSOR ISLAND RD N,KEIZER,97303,45.0097,-123.0547
Stonemor Oregon Subsidiary LLC dba Farnstrom Cremation Center,24-9216,24-9216-12-01,12,G1,4365 RIVER RD N,KEIZER,97303-5506,44.9882,-123.0265
"Keizer Shell Food Mart, LLC",24-9223,24-9223-22-01,22,G5,3401 RIVER RD,KEIZER,97303,44.9757,-123.0275
Keizer Food Market LLC,24-9279,24-9279-22-01,22,G5,4495 RIVER RD N,KEIZER,97303-5552,44.9887,-123.0265
Truax Corporation,24-9287,24-9287-22-01,22,G5,6160 RIVER RD N,KEIZER,97303,45.0109,-123.0206
"Ed Staub & Sons Petroleum, Inc.",18-0035,18-0035-22-01,22,G5,15475 HWY 66,KENO,97627,42.126,-121.9308
Gas Transmission Northwest LLC,28-0007,28-0007-TV-01,TV,TV,"WILCOX RD, 18MI S OF GRASS VALLEY",KENT,97033,45.1288,-120.6133
Q Bar X Ranch,17-0001,17-0001-BS-02,BS,BS,900 WEST SIDE RD.,KERBY,97531,42.022,-123.667
"Rogue Truck Body, LLC",17-0120,17-0120-25-01,25,G1,240 FINCH RD.,KERBY,97531,42.194,-123.6518
Klamath Energy LLC,18-0003,18-0003-TV-01,TV,TV,4940 HIGHWAY 97 S ,KLAMATH FALLS,97603-9593,42.1748,-121.8072
"JELD-WEN, Inc.",18-0006,18-0006-TV-01,TV,TV,3303 LAKEPORT BLVD,KLAMATH FALLS,97601,42.2515,-121.8027
"XL Cleaners, Inc.",18-0011,18-0011-R2-04,R2,R2,4806 S 6TH ST,KLAMATH FALLS,97603-4961,42.2064,-121.7286
Collins Products LLC,18-0013,18-0013-TV-01,TV,TV,6410 HIGHWAY 66,KLAMATH FALLS,97601,42.1708,-121.8244
"Columbia Forest Products, Inc.",18-0014,18-0014-TV-01,TV,TV,SOUTH HIGHWAY 97,KLAMATH FALLS,97601,42.1804,-121.8003
Pyramid Cremations,18-0018,18-0018-12-01,12,G1,3539 AVALON STREET,KLAMATH FALLS,97603,42.19,-121.72
Oil Re-Refining Company,18-0020,18-0020-SI-01,SI,SI,1291 LAVERNE AVE,KLAMATH FALLS,97603-4563,42.1922,-121.7677
"Electro Scientific Industries, Inc.",18-0022,18-0022-SI-01,SI,SI,4700 ESI WAY,KLAMATH FALLS,97601,42.2725,-121.7981
Castel's Southside LLC,18-0027,18-0027-22-01,22,G5,5735 ALTAMONT Drive,KLAMATH FALLS,97603,42.1737,-121.7474
"Ed Staub and Sons Petroleum, Inc.",18-0037,18-0037-22-01,22,G5,4449 HOMEDALE RD,KLAMATH FALLS,97603,42.1853,-121.7222
Ray's Market #2,18-0038,18-0038-22-01,22,G5,4237 GREENSPRINGS DR,KLAMATH FALLS,97601,42.1903,-121.8102
Pilot Travel Centers LLC,18-0039,18-0039-22-01,22,G5,3817 N HIGHWAY 97,KLAMATH FALLS,97601,42.2555,-121.7997
"Washburn Auto Care, Inc.",18-0040,18-0040-22-01,22,G5,3320 WASHBURN WAY,KLAMATH FALLS,97603-4530,42.184,-121.7573
ISA Enterprises Campus Inc,18-0044,18-0044-22-01,22,G5,2820 BIEHN ST,KLAMATH FALLS,97601,42.2481,-121.7917
"Klamath Veterinary Services, Inc.",18-0053,18-0053-BS-01,BS,BS,6360 S 6TH ST,KLAMATH FALLS,97603-7110,42.205,-121.7107
"Sky Lakes Medical Center, Inc.",18-0056,18-0056-11-01,11,G2,2865 DAGGETT AVE,KLAMATH FALLS,97601-1106,42.2526,-121.7867
Knife River Corporation - Northwest,18-0070,18-0070-09-01,9,G1,4815 TINGLEY LN,KLAMATH FALLS,97603,42.1871,-121.7679
"Imerys Perlite USA, Inc.",18-0078,18-0078-SI-01,SI,SI,5855 WASHBURN WAY,KLAMATH FALLS,97603-9634,42.1709,-121.755
"Ardent Mills, LLC",18-0080,18-0080-13-01,13,G1,20201 HIGHWAY 97 S,KLAMATH FALLS,97603,42.0414,-121.8704
"Davenport's Chapel of the Good Shepherd, Inc.",18-0081,18-0081-12-01,12,G1,2680 MEMORIAL DR,KLAMATH FALLS,97601,42.1968,-121.789
"Panel Processing of Oregon, Inc.",18-0086,18-0086-10-01,10,G3,3033 MEMORIAL DRIVE,KLAMATH FALLS,97603,42.189,-121.7876
"O'Hair & Riggs Funeral Services, Inc.",18-0088,18-0088-BS-01,BS,BS,2680 MEMORIAL DR,KLAMATH FALLS,97601,42.198,-121.7881
173d Fighter Wing Oregon Air National Guard,18-0097,18-0097-SI-01,SI,SI,VANDENBURG DRIVE,KLAMATH FALLS,97603,42.1919,-121.7241
Tracks to Heaven Pet Cremation,18-9503,18-9503-12-01,12,G1,2818 LAVERNE AVE,KLAMATH FALLS,97603-7241,42.1921,-121.7548
Ezell Suty Fuel Incorporated,18-9506,18-9506-17-01,17,G1,2360 S 6TH ST,KLAMATH FALLS,97601,42.2129,-121.7607
AMA Mini Mart Inc.1,18-9509,18-9509-22-01,22,G5,7255 S 6TH ST,KLAMATH FALLS,97603,42.1983,-121.7014
"AMA Mini Mart, Inc.",18-9510,18-9510-22-01,22,G5,5350 HWY 97,KLAMATH FALLS,97603,42.2768,-121.8125
"AMA Mini Mart, Inc. 1",18-9511,18-9511-22-01,22,G5,522 S. 6TH STREET,KLAMATH FALLS,97601,42.2217,-121.7795
Prems Gas and Mini Mart Inc,18-9512,18-9512-22-01,22,G5,2566 S 6TH ST,KLAMATH FALLS,97601-4344,42.2114,-121.7578
TRMC Retail LLC,18-9513,18-9513-22-01,22,G5,5400 SOUTH 6TH STREET,KLAMATH FALLS,97603,42.2064,-121.7226
"Ed Staub and Sons Petroleum, Inc.",18-9519,18-9519-22-01,22,G5,3303 WASHBURN WAY,KLAMATH FALLS,97601,42.1968,-121.7566
"Ed Staub and Sons Petroleum, Inc.",18-9520,18-9520-22-01,22,G5,3620 N HWY 97,KLAMATH FALLS,97601,42.2539,-121.7967
"Ed Staub and Sons Petroleum, Inc.",18-9521,18-9521-22-01,22,G5,3730 HWY 97N,KLAMATH FALLS,97601,42.2551,-121.7983
"Ed Staub and Sons Petroleum, Inc.",18-9522,18-9522-22-01,22,G5,5800 S 6TH ST,KLAMATH FALLS,97601,42.2062,-121.7161
"Ed Staub and Sons Petroleum, Inc.",18-9523,18-9523-22-01,22,G5,978 S SPRING ST,KLAMATH FALLS,97601-6274,42.2186,-121.7731
Worden Truck Stop Inc.,18-9524,18-9524-22-01,22,G5,19777 Highway 97 S,Klamath Falls,97603,42.0461,-121.8663
"Fred Meyer Stores, Inc.",18-9527,18-9527-22-01,22,G5,2655 SHASTA WAY,KLAMATH FALLS,97603-4455,42.2138,-121.7568
Klamath Falls Kampground Inc,18-9528,18-9528-22-01,22,G5,3435 SHASTA WAY,KLAMATH FALLS,97603-4443,42.2138,-121.7466
Truax Corporation,18-9529,18-9529-22-01,22,G5,4315 S 6TH ST,KLAMATH FALLS,97603-4863,42.2068,-121.7359
"Colvin Oil I, LLC",18-9530,18-9530-22-01,22,G5,3434 S 6TH ST,KLAMATH FALLS,97601,42.2062,-121.7466
"Colvin Oil I, LLC",18-9531,18-9531-22-01,22,G5,2104 S 6TH ST,KLAMATH FALLS,97601,42.2148,-121.7632
Oregon Avenue Food Mart,18-9534,18-9534-22-01,22,G5,2075 OREGON AVE,KLAMATH FALLS,97601,42.2388,-121.7913
"Ed Staub and Sons Petroleum, Inc.",18-9543,18-9543-17-01,17,G1,977 S SPRING ST,KLAMATH FALLS,97601-6273,42.2187,-121.773
"Woodgrain Millwork, Inc.",31-0002,31-0002-TV-01,TV,TV,62621 HWY 82,LA GRANDE,97850,45.3277,-118.0213
"R. D. Mac, Inc.",31-0008,31-0008-09-01,9,G1,60831 MCALISTER RD,LA GRANDE,97850-5247,45.3079,-118.0451
"R. D. Mac, Inc.",31-0009,31-0009-08-01,8,G2,60831 MCALISTER RD,LA GRANDE,97850-5247,45.3079,-118.0451
"Woodgrain Millwork, Inc.",31-0011,31-0011-ST-01,ST,ST,1917 JACKSON AVE,LA GRANDE,97850,45.33,-118.08
"Eagle Carriage & Machine, Inc.",31-0017,31-0017-25-01,25,G1,62500 COMMERCE RD,LA GRANDE,97850-8719,45.3473,-118.04
Eastern Oregon University,31-0026,31-0026-11-01,11,G2,1 UNIVERSITY BLVD,LA GRANDE,97850-2807,45.3182,-118.086
Hexion Inc.,31-0028,31-0028-ST-01,ST,ST,62575 Oregon Hwy 82,La Grande,97850,45.3495,-118.0325
Loveland Funeral Chapel,31-9502,31-9502-12-01,12,G1,1508 4TH ST,LA GRANDE,97850-2504,45.3247,-118.0965
"Byrnes Oil Company, Inc.",31-9504,31-9504-17-01,17,G1,804 21ST ST,LA GRANDE,97850,45.3185,-118.0744
"A & B Enterprises, Inc.",31-9505,31-9505-17-01,17,G1,10402 W 1ST ST,LA GRANDE,97850,45.3413,-118.0491
"Jacksons Food Stores, Inc.",31-9506,31-9506-22-01,22,G5,2706 ISLAND AVE,LA GRANDE,97850-9495,45.3327,-118.0686
"Jacksons Food Stores, Inc.",31-9507,31-9507-22-01,22,G5,2614 ISLAND AVE,LA GRANDE,97850,45.3328,-118.0694
"Global AF Enterprises, Inc.",31-9510,31-9510-22-01,22,G5,1519 ADAMS AVE,LA GRANDE,97850,45.3258,-118.0895
Pilot Travel Centers LLC,31-9516,31-9516-22-01,22,G5,63276 HWY 203,LA GRANDE,97850,45.2967,-118.0434
"A & B Enterprises, Inc.",31-9517,31-9517-22-01,22,G5,2112 ISLAND AVE,LA GRANDE,97850,45.3286,-118.0788
"A & B Enterprises, Inc.",31-9518,31-9518-22-01,22,G5,10102 N MCALISTER RD,LA GRANDE,97850,45.3417,-118.0458
"A & B Enterprises, Inc.",31-9519,31-9519-22-01,22,G5,2310 ISLAND AVE,LA GRANDE,97850,45.3304,-118.075
"A & B Enterprises, Inc.",31-9520,31-9520-22-01,22,G5,408 ADAMS AVE,LA GRANDE,97850,45.3295,-118.1031
Short Stop,31-9521,31-9521-22-01,22,G5,1709 GEKELER,LA GRANDE,97850,45.3126,-118.0876
Safeway Inc.,31-9524,31-9524-22-01,22,G5,2105 ADAMS AVE # 3,LA GRANDE,97850-2921,45.321,-118.082
La Pine Travel Center LLC,09-0065,09-0065-22-01,22,G5,17045 WHITNEY RD.,LA PINE,97739,43.7042,-121.4749
Wickiup Jct. Store,44459.00,09-9520-22-01,Jan-00,G5,17000 BURGESS RD,LA PINE,97739,43.7038,-121.4775
Truax Corporation,44468.00,09-9529-22-01,Jan-00,G5,16515 Reed Road,LA PINE,97739,43.6747,-121.5001
Truax Corporation,17777.00,09-9548-22-01,Jan-00,G5,51453 S HWY 97,LA PINE,97739,43.669,-121.5042
"Highlander Motel & RV, LLC",19238.00,09-9552-22-01,Jan-00,G5,51511 HWY. 97,LA PINE,97739,43.6725,-121.5028
LaPine Mini Mart,19603.00,09-9553-22-01,Jan-00,G5,52530 HWY 97,LA PINE,97739,43.7083,-121.4739
"Mid Columbia Producers, Inc.",27273.00,09-9574-22-01,Jan-00,G5,51365 HWY. 97,LA PINE,97739,43.6664,-121.5074
"Ed Staub and Sons Petroleum, Inc.",30195.00,09-9582-22-01,Jan-00,G5,50882 S HWY 97,LA PINE,97739,43.64,-121.52
"Liberty Market, LLC dba Liberty Market",36-9522,36-9522-22-01,22,G5,516 THIRD STREET,LAFAYETTE,97127,45.2436,-123.113
"Atlas Industrial Coating, Inc.",03-0009,03-0009-SI-01,SI,SI,17555 SW 63RD AVE,LAKE OSWEGO,97035-5209,45.3989,-122.7416
Caliber Holdings Corporation,03-0133,03-0133-BS-01,BS,BS,120 FOOTHILLS RD,LAKE OSWEGO,97034,45.4203,-122.6585
S&H Oil LLC,03-0143,03-0143-23-01,23,G4,1680 SOUTH SHORE BLVD,LAKE OSWEGO,97034,45.4068,-122.678
Lake-Shore Concrete Co.,44279.00,03-1924-09-01,Jan-00,G1,100 SW FOOTHILLS RD,LAKE OSWEGO,97034,45.4204,-122.6613
"Bill's Service, Inc.",21245.00,03-9558-22-01,Jan-00,G5,496 N STATE ST,LAKE OSWEGO,97034,45.4203,-122.663
"Fardanesh Enterprises, LLC",24167.00,03-9566-23-01,Jan-00,G4,17830 SW BOONES FERRY RD,LAKE OSWEGO,97035,45.3967,-122.7424
Space Age Fuel Inc,31837.00,03-9587-23-01,Jan-00,G4,17895 SW MCEWAN RD,LAKE OSWEGO,97035-7874,45.3961,-122.7435
"Jacksons Food Stores, Inc.",44264.00,03-9609-23-01,Jan-00,G4,608 N STATE ST,LAKE OSWEGO,97034,45.422,-122.6613
Grimm's Fuel Co.,44284.00,03-9629-23-01,Jan-00,G4,1631 SOUTH SHORE BLVD,LAKE OSWEGO,97034-4717,45.4061,-122.6775
"Jacksons Food Stores, Inc.",12479.00,03-9634-23-01,Jan-00,G4,16211 BOONES FERRY RD,LAKE OSWEGO,97035-4203,45.4086,-122.7232
"Jacksons Food Stores, Inc.",13575.00,03-9637-23-01,Jan-00,G4,209 A AVE,LAKE OSWEGO,97034-3118,45.4198,-122.6659
"Blue Goose Investment, LLC",14305.00,03-9639-23-01,Jan-00,G4,2 MONROE PKWY,LAKE OSWEGO,97035-1431,45.4321,-122.7023
Cain Petroleum Inc.,17227.00,03-9647-23-01,Jan-00,G4,15905 LOWER BOONES FERRY RD,Lake Oswego,97035,45.4107,-122.7191
"Jacksons Food Stores, Inc.",17958.00,03-9649-23-01,Jan-00,G4,14951 BANGY RD,LAKE OSWEGO,97035-3201,45.418,-122.7428
JCS Gas N Grub Inc,27089.00,03-9674-23-01,Jan-00,G4,15670 UPPER BOONES FERRY RD,LAKE OSWEGO,97035-4062,45.4092,-122.7406
"1JOT, LLC",06-0048,06-0048-22-01,22,G5,72327 HWY 101,LAKESIDE,97449,43.5945,-124.1814
"Imerys Perlite USA, Inc.",19-0001,19-0001-SI-01,SI,SI,96078 Industrial Lane,LAKEVIEW,97630,42.2654,-120.6174
